direccion,horario,latitud,localidad,longitud,municipio,precio_gasoleo_a,precio_gasoleo_b,precio_gasoleo_premium,precio_gasolina_95_e10,precio_gasolina_95_e5,precio_gasolina_95_e5_premium,precio_gasolina_98_e5,provincia,rotulo
"AVENIDA CASTILLA LA MANCHA, 26",L-D: 07:00-22:00,39.211417,ABENGIBRE,-1.539167,Abengibre,1.599,1.219,,,1.699,,,ALBACETE,Nº 10.935
"AVENIDA 1º DE MAYO, S/N",L-S: 08:00-22:00; D: 09:00-21:00,38.985667,ALBACETE,-1.8685,Albacete,1.729,,1.769,,1.779,,1.889,ALBACETE,CARREFOUR
"CALLE FEDERICO GARCIA LORCA, 1",L-D: 24H,39.000861,ALBACETE,-1.849833,Albacete,1.589,,,,1.659,,,ALBACETE,PLENOIL
"CALLE PRINCIPE DE ASTURIAS (POLÍGONO DE ROMICA), 5",L-D: 06:00-21:30,39.054694,ALBACETE,-1.832,Albacete,1.709,,1.799,,1.759,,1.901,ALBACETE,BP ROMICA
"CALLE FEDERICO GARCIA LORCA, 5",L-S: 05:00-23:00,38.997722,ALBACETE,-1.846361,Albacete,1.745,,,,,,,ALBACETE,CEPSA
"CL PASEO DE LA CUBA, 15",L-D: 06:00-22:00,38.999722,ALBACETE,-1.854556,Albacete,1.719,,1.779,,1.769,,1.889,ALBACETE,REPSOL
"PASEO CUBA (LA), 36",L-D: 06:00-23:00,39.005083,ALBACETE,-1.859917,Albacete,1.749,,1.815,,1.789,,1.921,ALBACETE,CEPSA
"AVENIDA MENÉNDEZ PIDAL, 58",L-D: 24H,39.003333,ALBACETE,-1.864917,Albacete,1.709,,1.759,,1.769,,1.879,ALBACETE,TAMOS
"AVENIDA ESCRITOR RODRIGO RUBIO, 3",L-S: 09:00-21:30,39.006889,ALBACETE,-1.885361,Albacete,1.578,,1.638,,1.688,,,ALBACETE,A&A
"CALLE HERMANOS FALCÓ, 2",L-D: 06:30-22:30,38.98925,ALBACETE,-1.849028,Albacete,1.759,,1.829,,1.799,,1.939,ALBACETE,CEPSA
"AVENIDA 1º DE MAYO, S/N",L-D: 07:00-23:00,38.985194,ALBACETE,-1.866806,Albacete,1.639,,,,1.719,,,ALBACETE,PETROCAMP
"CALLE CTRA. DE JAEN, 79",L-D: 06:00-23:00,38.988111,ALBACETE,-1.883694,Albacete,1.729,,1.799,,1.799,,1.929,ALBACETE,REPSOL
"CALLE ALCALDE CONANGLA (C.C. EROSKI), S/N",L-S: 07:00-23:00; D: 08:00-23:00,38.988972,ALBACETE,-1.847361,Albacete,1.569,,1.659,,1.639,,1.699,ALBACETE,FAMILY ENERGY
"AVDA. DE ESPAÑA (PRÓX. A C/ SAN JUAN), S/N",L-D: 07:00-23:00,38.982167,ALBACETE,-1.853306,Albacete,1.629,,,,1.729,,,ALBACETE,INPEALSA
CARRETERA JAEN KM. 2,L-D: 24H,38.994667,ALBACETE,-1.871722,Albacete,1.729,,1.789,,1.779,1.819,1.889,ALBACETE,REPSOL
CARRETERA N-322 KM. 359,L-V: 07:00-21:00; S-D: 09:00-14:00,39.033139,ALBACETE,-1.845083,Albacete,1.709,,1.769,,1.759,,1.889,ALBACETE,REPSOL
"CALLE ALMANSA, 2",L-D: 06:00-23:00,38.984139,ALBACETE,-1.847083,Albacete,1.749,,1.815,,1.779,,1.911,ALBACETE,CEPSA
"CR N-301, 244",L-D: 24H,39.027778,ALBACETE,-1.892972,Albacete,1.729,,1.789,,1.769,,1.889,ALBACETE,REPSOL
"PG CAMPOLLANO-P. 2-CT, S.N.",L-V: 06:00-22:00; S: 07:30-15:30; D: 09:00-15:00,39.012583,ALBACETE,-1.874972,Albacete,1.729,,1.789,,1.759,,1.879,ALBACETE,REPSOL
"AVDA. DE LOS TOREROS, S/N",L-D: 07:00-23:00,38.998222,ALBACETE,-1.869889,Albacete,1.629,,1.679,,1.729,,,ALBACETE,INPEALSA
CARRETERA NACIONAL 322 PTO KM 347 KM. 347,L-S: 07:00-22:00,38.965639,ALBACETE,-1.9355,Albacete,1.619,,,,,,,ALBACETE,P347
"CR N-322, 337,8",L-D: 06:30-22:00,38.925833,ALBACETE,-2.031861,Albacete,1.739,,1.809,,1.789,,1.909,ALBACETE,REPSOL
CARRETERA NACIONAL 301 KM. 256,L-D: 24H,38.929389,ALBACETE,-1.831639,Albacete,1.609,,,,1.729,,,ALBACETE,INPEALSA
CARRETERA N-322 KM. 349,L-D: 24H,38.970167,ALBACETE,-1.919778,Albacete,1.759,,1.829,,1.789,,1.849,ALBACETE,CEPSA
"AVENIDA PRINCIPE, 2",L-D: 08:00-16:00,38.900944,SANTA ANA,-1.994028,Albacete,1.689,1.416,1.749,,1.719,,1.839,ALBACETE,REPSOL
"CM. 3203 km 14,1",L-S: 07:00-14:00; D: 09:00-14:00,38.867556,SALOBRAL (EL),-1.9205,Albacete,1.637,1.179,1.86,,1.692,,,ALBACETE,LOZANO
"CTRA.AGUASNUEVAS KM 0,25",L-D: 24H,38.870278,SALOBRAL (EL),-1.922722,Albacete,,1.2,,,,,,ALBACETE,CORYMAR
"CALLE C/ AUTOVIA C/V AVD. SEXTA, S/N",L-D: 24H,39.029583,ALBACETE,-1.888083,Albacete,,,,,,,,ALBACETE,NATURGY ES  GNV ALBACETE
"CALLE AUTOVIA, SN",L-D: 24H,39.029167,ALBACETE,-1.888333,Albacete,1.619,,,,1.729,,,ALBACETE,LA GAVIOTA GASOLINERA 24 HORA
AUTOVIA A-31 KM. 69,L-D: 06:00-22:00,39.031528,ALBACETE,-1.891361,Albacete,1.719,,1.819,,1.769,,1.929,ALBACETE,REPSOL
"POLIGONO ROMICA C/4, 106",L: 24H,39.060639,ALBACETE,-1.836806,Albacete,1.55,,,,1.62,,,ALBACETE,VILLAFUEL SL
"MADRID-CARTAGENA km 248,5",L-D: 06:00-22:00,38.971722,ALBACETE,-1.845278,Albacete,1.709,,1.779,,1.769,1.819,1.889,ALBACETE,"REPSOL. LOS ANGELES DE LA MANCHA, S.L."
"CARRETERA C-M 332 KM. 2,6",L-D: 06:00-23:30,38.998111,ALBACETE,-1.831611,Albacete,1.749,1.639,1.809,,1.799,,1.929,ALBACETE,"INLOCOR S.L. ""CEPSA"""
"AVENIDA 3ª ESQUINA C/ F Nº3, 3",L-D: 24H,39.009417,ALBACETE,-1.885694,Albacete,1.599,,,,1.699,,,ALBACETE,FAST & GAS
"POLIGONO AVDA. 3ª, ESQUINA C/AUTOVIA, 69",L-D: 24H,39.018,ALBACETE,-1.874333,Albacete,1.629,,1.729,,1.729,,1.859,ALBACETE,ENERCOM CARBURANTES
"SECTOR PARCELA T-3 LOCAL52, 14",L-S: 06:00-23:00; D: 08:00-23:00,39.009639,ALBACETE,-1.878111,Albacete,1.681,,1.717,,1.727,,1.828,ALBACETE,ALCAMPO
"POLIGONO CAMPOLLANO C/.F, 13",L-D: 24H,39.012472,ALBACETE,-1.889417,Albacete,1.619,,,,,,,ALBACETE,AVANZA OIL
"POLIGONO CAMPOLLANO AVENIDA -0-, 69",L-V: 07:00-21:00; S-D: 09:00-14:00,39.021972,ALBACETE,-1.879639,Albacete,2.259,,,,2.299,,2.369,ALBACETE,ABOIL
"MADRID-CARTAGENA km 248,5",L-V: 06:00-22:00,38.971778,ALBACETE,-1.845306,Albacete,1.709,,1.779,,1.769,,1.889,ALBACETE,REPSOL Nº ESTACIÓN 97179
"AVENIDA PRIMERA, 94",L-V: 06:00-22:00; S: 06:00-14:00,39.016361,ALBACETE,-1.893944,Albacete,1.609,,1.659,,1.729,,,ALBACETE,INPEALSA
"POLIGONO CAMPOLLANO, 55",L-V: 05:30-23:00; S: 06:30-22:30; D: 07:30-21:00,39.015444,ALBACETE,-1.871361,Albacete,1.749,,1.819,,1.779,,1.899,ALBACETE,CEPSA
"AVENIDA POLIGONO CAMPOLLANO AVENIDA 0, 67",L-D: 24H,39.021583,ALBACETE,-1.886556,Albacete,1.649,,,,1.729,,,ALBACETE,VALERO 24H
"AVENIDA PRIMERA, S/N",L-D: 24H,39.022139,ALBACETE,-1.882056,Albacete,1.559,,,,1.619,,,ALBACETE,GMOIL
"AUTOVIA A-30 KM. 239,4",L-D: 24H,39.060528,ALBACETE,-1.933056,Albacete,1.729,,1.809,,1.769,,,ALBACETE,CEPSA
"POLIGONO Nº 71, PARCELA 678, PARAJE HONDO DE LA MORENA S/N, S/N",L-D: 06:30-22:30,38.969361,ALBACETE,-1.823639,Albacete,1.759,,1.829,,1.799,,1.939,ALBACETE,CEPSA
"CARRETERA DE LAS PEÑAS KM 0+238 KM. 0,238",L-D: 07:00-22:00,38.970778,ALBACETE,-1.873194,Albacete,1.639,,,,1.729,,,ALBACETE,AREA LOS LLANOS
"AUTOVIA A-30 KM. 239,4",L-D: 07:00-23:00,39.059806,ALBACETE,-1.93325,Albacete,1.709,,1.789,,1.769,,1.901,ALBACETE,CEPSA
"CM-3203 km 41,9",L-D: 07:00-21:30,38.646833,ALCADOZO,-1.978917,Alcadozo,1.759,1.439,1.829,,1.799,,,ALBACETE,CEPSA
"CARRETERA CM-3201 47,1 KM. 47,1",L-D: 08:00-21:00,39.203167,ALCALA DEL JUCAR,-1.433222,Alcalá del Júcar,1.659,,,,1.739,,,ALBACETE,EL JUCAR
"CR N-322 276,5",L-D: 07:00-22:00,38.673111,ALCARAZ,-2.492222,Alcaraz,1.709,,1.779,,1.809,,1.949,ALBACETE,REPSOL
CARRETERA N-430 BADAJOZ A VALENCIA KM. 594,L-D: 24H,38.850278,ALMANSA,-1.027694,Almansa,1.599,1.389,,,1.699,,,ALBACETE,GASOLINERA LOW COST PENADES
"AVENIDA INFANTE DON JUAN MANUEL, 8",L-D: 24H,38.874556,ALMANSA,-1.102944,Almansa,1.609,,,,1.679,,,ALBACETE,QUALITY ALMANSA
"AVENIDA MADRID, 11",L-V: 06:00-22:00,38.871556,ALMANSA,-1.108,Almansa,1.729,,1.799,,1.774,1.869,,ALBACETE,CEPSA
"AVENIDA CIRCUNVALACION, 9",L-D: 06:00-22:00,38.879167,ALMANSA,-1.098889,Almansa,1.729,,1.799,,1.774,1.869,,ALBACETE,CEPSA
"AVENIDA CIRCUNVALACION, 17",L-D: 24H,38.874083,ALMANSA,-1.089278,Almansa,1.609,,,,,,,ALBACETE,GASÓLEOS S. ALMANSA
"AUTOVIA A-31 KM. 143,350",L-D: 06:00-22:00,38.878278,ALMANSA,-1.143722,Almansa,1.749,,1.819,,1.809,,1.879,ALBACETE,CEPSA
AUTOVIA A-31 KM. 140,L-D: 07:00-23:00,38.875028,ALMANSA,-1.17575,Almansa,1.734,,1.814,,1.779,,1.919,ALBACETE,SHELL
"CL AVDA. DE AYORA, S.N. A",L-D: 06:00-22:00,38.874583,ALMANSA,-1.100528,Almansa,1.719,,1.819,,1.769,,1.929,ALBACETE,REPSOL
"AVENIDA CIRCUNVALACION, 26",L-D: 06:00-22:00,38.859944,ALMANSA,-1.08475,Almansa,1.739,,1.815,,1.789,,,ALBACETE,CEPSA
"BONETE, S/Nº",L-D: 24H,38.958875,ALPERA,-1.236552,Alpera,1.571,1.183,,,1.627,,,ALBACETE,COOPERATIVA SANTA CRUZ DE ALPERA
"N-322 km 326,2",L-D: 07:00-23:00,38.878028,BALAZOTE,-2.150639,Balazote,1.725,1.45,,,1.775,,,ALBACETE,E.S. BALAZOTE S.L.
"CALLE ALBACETE, 57",L-D: 06:00-23:00,39.043139,BARRAX,-2.195139,Barrax,1.725,1.45,,,1.775,,,ALBACETE,E.S. BARRAX S.L.
CAMINO DE LOS GONZALOS SN,L-D: 24H,39.051236,BARRAX,-2.192996,Barrax,1.609,1.251,,,,,,ALBACETE,COABA
CARRETERA BIENSERVIDA KM. 10,L-D: 07:00-22:00,38.516417,BIENSERVIDA,-2.617667,Bienservida,1.559,,,,1.689,,,ALBACETE,GASOLINERA ETENOIL
AUTOVIA A-31 KM. 126,L-D: 06:00-22:00,38.875861,BONETE,-1.3315,Bonete,1.719,,1.789,,1.759,,1.889,ALBACETE,REPSOL
"CR N-430, 566,3",L-D: 06:00-22:00,38.876111,BONETE,-1.331611,Bonete,1.719,,1.799,,1.759,,1.899,ALBACETE,REPSOL
"CALLE CARRETERA MUNERA, 2",S-D: 07:00-15:00,38.953361,BONILLO (EL),-2.535056,Bonillo (El),1.689,1.426,1.749,,1.719,,1.839,ALBACETE,REPSOL
"AVDA. ALBACETE, 33",L-D: 07:00-23:00,39.100792,CASAS DE JUAN NUÑEZ,-1.560857,Casas de Juan Núñez,1.679,1.2,,,1.779,,,ALBACETE,GASOLINERAS DEL REY
"CARRETERA CASAS IBAÑEZ KM. 13,8",L-V: 08:00-13:30 y 15:00-18:00,39.255139,CASAS DE VES,-1.332194,Casas de Ves,,1.2,,,,,,ALBACETE,COOPERATIVA
"AVDA. DEL VINO, 10",L-D: 24H,39.291375,CASAS-IBAÑEZ,-1.474107,Casas-Ibáñez,,1.35,,,,,,ALBACETE,CEPSA
CARRETERA ALBACETE KM. 94,L-D: 07:00-21:00,39.283944,CASAS-IBAÑEZ,-1.477806,Casas-Ibáñez,1.769,1.429,1.829,,1.789,,1.919,ALBACETE,CEPSA
"CARRETERA N-344 KM. 114,500",L-D: 24H,38.710861,CAUDETE,-0.974778,Caudete,1.654,1.274,,,,,,ALBACETE,TRANSPORTES CAUDETE
"CR N-330, 71,4",L-D: 06:00-23:00,38.756417,CAUDETE,-0.955833,Caudete,1.719,1.379,1.799,,1.759,,1.899,ALBACETE,REPSOL
"CR N-344 DIRC.VALENCIA, KM.  118.3",L-D: 06:00-22:00,38.727472,CAUDETE,-0.943,Caudete,1.739,,1.83,,1.79,,1.931,ALBACETE,BP PARGA I PETROL BAS BEL
CARRETERA D12 ESTACION KM. 1,L-D: 24H,38.71075,CAUDETE,-0.973861,Caudete,,,,,,,,ALBACETE,HAM
"AVENIDA VALENCIA DE, 16",L-D: 06:00-22:00,38.708944,CAUDETE,-0.982111,Caudete,1.749,,1.839,,1.809,,1.959,ALBACETE,GALP
CARRETERA D-12 ESTACION KM. 32,L-D: 24H,38.711694,CAUDETE,-0.971639,Caudete,1.659,1.279,,,1.729,,,ALBACETE,VILA Y FAYOS
AUTOVIA A-31 KM. 172,L-V: 07:00-15:00,38.721917,CAUDETE,-0.933861,Caudete,1.772,,1.872,,1.849,,1.969,ALBACETE,BP OIL
"CALLE VIRGEN DE LAS NIEVES, 17",L-D: 24H,39.301,CENIZATE,-1.664167,Cenizate,1.556,1.126,,,1.596,,,ALBACETE,VIRGEN DE LAS NIEVES
AUTOVIA A-31 KM. 86,L-D: 06:00-23:00,38.937583,CHINCHILLA DE MONTE-ARAGO,-1.758,Chinchilla de Monte-Aragón,1.719,,1.819,,1.769,,1.919,ALBACETE,REPSOL
"Ctra. AB-430 KM 530,3",L: 06:00-22:00,38.915972,CHINCHILLA DE MONTE-ARAGO,-1.726278,Chinchilla de Monte-Aragón,1.729,,1.789,,1.769,,1.889,ALBACETE,REPSOL
AUTOVIA A-31 KM. 86,L-D: 06:00-23:00,38.938611,CHINCHILLA DE MONTE-ARAGO,-1.757611,Chinchilla de Monte-Aragón,1.719,,1.819,,1.769,,,ALBACETE,REPSOL
CL AVENIDA GENERALISIMO 107 (N-301 km 276),L-D: 06:00-22:00,38.803389,POZO BUENO,-1.731861,Chinchilla de Monte-Aragón,1.739,,1.839,,1.769,1.799,,ALBACETE,REPSOL
AUTOVIA A31 KM. 111,L-V: 06:00-22:00; S-D: 07:00-22:00,38.898306,VILLAR DE CHINCHILLA,-1.502806,Chinchilla de Monte-Aragón,1.749,,1.849,,1.799,,1.939,ALBACETE,CEPSA
"CL BOLEA, 36 (CM-412 km 235,65)",L: 06:00-22:00,38.451306,ELCHE DE LA SIERRA,-2.044778,Elche de la Sierra,1.739,1.437,1.799,,1.769,,1.909,ALBACETE,CAMPSA
"POLIGONO EL CAMPILLO A, 2",L-V: 08:00-21:00; S: 08:00-14:00,38.460694,ELCHE DE LA SIERRA,-2.017917,Elche de la Sierra,1.669,,,,1.71,,,ALBACETE,DLP
"LA HIGUERA, 000",L-D: 24H,38.695348,FUENTE-ALAMO,-1.431579,Fuente-Álamo,1.54,1.16,,,,,,ALBACETE,SAN DIONISIO
"AVDA. DOCTOR PEREZ GIL, 25",L-D: 07:00-21:00,38.689833,FUENTE-ALAMO,-1.433306,Fuente-Álamo,1.679,1.239,,,1.749,,1.87,ALBACETE,Nº 7374
N-322 (CORDOBA-VALENCIA) km 399,L-D: 07:00-20:00,39.269972,FUENTEALBILLA,-1.548639,Fuentealbilla,1.629,1.249,,,1.719,,,ALBACETE,ES SAN ANTONIOABAD. FUENTEALBILLA
"CR N-301, 231,8",L-D: 07:00-21:00,39.107667,GINETA (LA),-1.990194,Gineta (La),1.699,,1.759,,1.749,,1.879,ALBACETE,REPSOL
"CR A-31, 235",L-D: 06:00-22:00,39.086278,GINETA (LA),-1.963944,Gineta (La),1.719,,1.819,,1.769,1.809,1.929,ALBACETE,REPSOL
CARRETERA NACIONAL 322 KM. 390,L: 06:00-22:00,39.238111,GOLOSALVO,-1.635111,Golosalvo,1.749,,1.829,,1.799,,1.929,ALBACETE,CEPSA
"MELCHOR  DE MACANAZ, 66",L: 06:00-23:00,38.511222,HELLIN,-1.696972,Hellín,1.739,,1.789,,1.759,,1.869,ALBACETE,BP
"CARRETERA A-30 KM. 328,2",L-D: 06:00-22:00,38.417306,HELLIN,-1.571667,Hellín,1.729,,1.819,,1.774,1.835,,ALBACETE,CEPSA
CARRETERA N 301-A KM. S/N,L-D: 24H,38.502528,HELLIN,-1.677694,Hellín,1.595,,,,1.675,,,ALBACETE,MULTSER-OIL
"AUTOVIA A-30 KM. 322,5",L-D: 06:00-22:00,38.46425,HELLIN,-1.596722,Hellín,1.739,,1.809,,1.799,,1.929,ALBACETE,GALP
CARRETERA JAEN KM. 47,L-D: 08:00-21:00,38.502889,HELLIN,-1.714556,Hellín,1.729,,1.789,,1.739,,1.859,ALBACETE,REPSOL
"POLIGONO SAN RAFAEL 3ª FASE, SN",L-D: 24H,38.545111,HELLIN,-1.705389,Hellín,1.779,,,,,,,ALBACETE,IDS
CARRETERA TORREUCHEA KM. 1,L-D: 24H,38.495972,HELLIN,-1.636389,Hellín,1.798,1.699,1.819,,1.799,,1.899,ALBACETE,HELLIN GAS S.L.
"AVENIDA LIBERTAD, 111",L-D: 24H,38.517306,HELLIN,-1.700417,Hellín,1.575,,,,1.649,,,ALBACETE,PLENOIL
CARRETERA CM 412 KM. 273,L-D: 06:30-22:00,38.532389,HELLIN,-1.694889,Hellín,1.575,,,,1.688,,,ALBACETE,PETROGAS
CARRETERA N-301 KM. 316,L-D: 06:00-23:00,38.524444,HELLIN,-1.703056,Hellín,1.739,,1.799,,1.749,,1.869,ALBACETE,REPSOL
CARRETERA MURCIA KM. 33,L-D: 06:00-23:00,38.506806,HELLIN,-1.687833,Hellín,1.729,,1.789,,1.739,,1.859,ALBACETE,PETRONOR
CARRETERA DE HELLIN KM. 104,L-D: 06:00-23:00,38.491861,ISSO,-1.741111,Hellín,1.729,1.447,1.789,,1.729,,1.849,ALBACETE,REPSOL
"BALTASAR GONZALEZ SAEZ, 34 - 36",L-D: 24H,38.960944,HIGUERUELA,-1.444083,Higueruela,1.644,1.171,,,1.665,,,ALBACETE,NO
"AUTOVIA A-31 KM. 103,150",L-D: 07:00-23:00,38.921833,HOYA-GONZALO,-1.583389,Hoya-Gonzalo,1.719,,1.809,,1.769,,1.909,ALBACETE,REPSOL
"CARRETERA A 45 KM. 39,8",L-D: 07:00-21:30,38.356556,LETUR,-2.111056,Letur,1.717,1.357,,,1.755,,,ALBACETE,E.S. LETUR
"PASEO LIBERTAD, 62",L-D: 7:00-20:30,38.948472,LEZUZA,-2.354861,Lezuza,1.709,,,,1.799,,,ALBACETE,E.S. VIRGEN DE LA CRUZ
CARRETERA C-3222 KM. 9,L-S: 07:00-15:00,39.226611,MADRIGUERAS,-1.800611,Madrigueras,1.659,,,,1.719,,,ALBACETE,Q8
AVENIDA DE LEVANTE 27,L-D: 24H,39.232528,MADRIGUERAS,-1.794139,Madrigueras,1.6,1.21,,,,,,ALBACETE,SAT VIDEMA
"AVENIDA LEVANTE, 15",L-D: 06:00-22:00,39.233056,MADRIGUERAS,-1.799472,Madrigueras,1.689,1.368,1.759,,1.719,,,ALBACETE,REPSOL
"CAMINO HORTIGOSA, S/N",L-D: 24H,39.209972,MAHORA,-1.729333,Mahora,1.6,1.2,,,,,,ALBACETE,SECADEMA
CARRETERA MADRID-CARTAGENA KM. S/N,L-D: 24H,39.273583,MINAYA,-2.325056,Minaya,1.585,1.215,,,,,,ALBACETE,COOPERATIVA VITIVINICOLA SANTIAGO EL MAYOR
"CARRERA N-301, 195,2",L-D: 06:00-23:00,39.276056,MINAYA,-2.330333,Minaya,1.739,1.379,1.809,,1.799,,1.929,ALBACETE,REPSOL
"CALLE CAPATAZ SANTIAGO, 91",L-D: 06:30-23:00,38.789694,MONTEALEGRE DEL CASTILLO,-1.32875,Montealegre del Castillo,1.539,1.179,,,,,,ALBACETE,BODEGAS SANTIAGO APOSTOL
"CALLE CAPATAZ SANTIAGO, 23",L-D: 07:00-21:00,38.785917,MONTEALEGRE DEL CASTILLO,-1.33025,Montealegre del Castillo,1.729,,,,1.779,,,ALBACETE,LOS CORRALES
MEDIO DÍA 28,L-D: 24H,39.17907,MOTILLEJA,-1.788246,Motilleja,,1.23,,,,,,ALBACETE,SAT MOTILLEJA
"CALLE COOPERATIVAS, 4",L-D: 24H,39.046139,MUNERA,-2.480694,Munera,1.449,1.08,,,1.579,,,ALBACETE,OLEOVINICOLA CAMPOS DE MUNERA S. COOP. DE C-LM
"CALLE POZO (EL), 106",L-D: 06:30-22:30,39.043806,MUNERA,-2.485028,Munera,1.619,,1.669,,1.729,,,ALBACETE,INPEALSA
CTRA DE LEDAÑA S/N km S/N,L-D: 24H,39.281778,NAVAS DE JORQUERA,-1.719778,Navas de Jorquera,1.55,1.147,,,,,,ALBACETE,COOP SAN GREGORIO
"CR AB-702, 45,6",L-D: 07:00-21:00,38.151167,NERPIO,-2.293444,Nerpio,1.689,1.462,,,1.719,,1.839,ALBACETE,CAMPSA
"CRTA.CM km KM297,5",L-D: 07:00-21:00,38.622944,ONTUR,-1.497667,Ontur,1.689,1.447,1.749,,1.719,1.749,,ALBACETE,REPSOL
CAMINO DE HELLIN S/N,L-D: 24H,38.609556,ONTUR,-1.508333,Ontur,1.599,1.342,,,,,,ALBACETE,ONTALBA S. COOP DE C-LM
CARRETERA N 430 KM. 429,L-S: 08:00-20:00; D: 08:00-18:00,38.967167,OSSA DE MONTIEL,-2.7515,Ossa de Montiel,1.689,,1.749,,1.719,1.749,,ALBACETE,REPSOL
"AVENIDA GUARDIA CIVIL, S/N",L-D: 24H,38.724028,PEÑAS DE SAN PEDRO,-1.990278,Peñas de San Pedro,1.649,,,,1.729,,,ALBACETE,VALERO 24H ENERGIA
CARRETERA FUENTEALAMO KM. 36,L-D: 24H,38.828806,PETROLA,-1.553694,Pétrola,1.699,,,,1.749,,,ALBACETE,GASOLEOS TURBULA
"CALLE HERNAN CORTES, S/N",L-D: 08:00-20:00,38.813389,POZO CAÑADA,-1.735917,Pozo Cañada,1.54,,,,,,,ALBACETE,POZOTRANS
"CALLE ANTONIO MACHADO, 2",L-V: 07:00-14:00; S: 09:00-14:00,38.805278,POZO CAÑADA,-1.736389,Pozo Cañada,1.679,,,,,,,ALBACETE,E.S. LEDAÑA
"CR CM-313 61,7",L-D: 07:00-21:00,38.717556,POZOHONDO,-1.91075,Pozohondo,1.769,1.419,,,1.859,,,ALBACETE,REPSOL
"CALLE DISEMINADOS, 1",L-V: 08:00-14:00 y 16:00-18:00,38.64175,NAVA DE ABAJO,-1.844139,Pozohondo,1.539,,,,1.709,,,ALBACETE,CAMPAREZ
"POLIGONO PARAJE RECIAL, 2",L-D: 24H,39.081278,POZO-LORENTE,-1.512611,Pozo-Lorente,1.635,1.215,,,,,,ALBACETE,SAT SANTA CRUZ DE POZO LORENTE
CARRETERA M 313 KM. 50,L-D: 07:00-22:00,38.804722,POZUELO,-2.098778,Pozuelo,1.709,1.489,,,1.759,,1.869,ALBACETE,INLOCOR S.L.
"CARRETERA CM-412 KM. 199,5",L-D: 08:00-20:00,38.493528,RIOPAR,-2.411444,Riópar,1.749,,1.829,,1.789,1.859,,ALBACETE,CEPSA
CARRETERA NACIONAL 320 KM. 289,L-V: 07:00-21:00; S: 07:00-14:30; D: 07:00-21:00,38.771194,ROBLEDO,-2.450028,Robledo,1.65,,,,1.69,,,ALBACETE,CANOIL
"ALFREDO ATIENZA, 149-151",L-D: 24H,39.201139,RODA (LA),-2.14775,Roda (La),1.529,1.175,,,,,,ALBACETE,LA REMEDIADORA
CARRETERA MADRID CARTAGENA KM. 209,L-D: 06:00-22:00,39.212361,RODA (LA),-2.171028,Roda (La),1.719,,1.809,,1.779,,,ALBACETE,BP CASA JUANITO RESTAURANTE
"AUTOVIA A-31 KM. 34,50",L-D: 07:00-23:00,39.225,RODA (LA),-2.186083,Roda (La),1.739,,1.829,,1.799,,1.929,ALBACETE,GALP
"POLIGONO AVENIDA PRIMERA, 17",L-D: 24H,39.19125,RODA (LA),-2.143056,Roda (La),,,,,,,,ALBACETE,HAM
"CR NACIONAL 301 km 210,300",L-D: 24H,39.213653,RODA (LA),-2.17619,Roda (La),1.51,,,,,,,ALBACETE,RODATRANS
"CARRETERA AB101 KM. 0,2",L-D: 24H,39.218389,RODA (LA),-2.158028,Roda (La),1.549,,,,1.679,,,ALBACETE,GASPLAY
MARTIRES 209,L-V: 07:00-21:00; S: 09:00-13:00,39.212861,RODA (LA),-2.171778,Roda (La),1.669,,1.789,,1.724,,1.856,ALBACETE,CEPSA
AUTOVIA A-31 KM. 40,L-D: 06:00-22:00,39.200944,RODA (LA),-2.144639,Roda (La),1.719,,1.809,,1.769,,1.919,ALBACETE,REPSOL
"CARRETERA CM-3114 KM. 0,1",L-V: 06:00-10:00; S: 06:00-14:00,39.213722,RODA (LA),-2.156667,Roda (La),1.729,,1.789,,1.759,,1.879,ALBACETE,REPSOL
CARRETERA A-31 KM. 50,L-D: 07:00-23:00,39.143972,RODA (LA),-2.05125,Roda (La),1.739,,1.829,,1.799,,1.929,ALBACETE,GALP
"CALLE ALFREDO ATIENZA, 156",L-D: 06:00-22:55,39.201667,RODA (LA),-2.149,Roda (La),1.739,,1.799,,1.769,,1.889,ALBACETE,REPSOL
"AVENIDA DE LA PAZ, 3",L-S: 06:00-22:00; D: 06:30-22:00,38.331361,SOCOVOS,-1.981861,Socovos,1.689,1.369,,,1.749,,1.849,ALBACETE,"NAVARRO Y VALERO, S.L"
"CARRETERA VILLAGARCIA KM. 0,1",L-D: 24H,39.270556,TARAZONA DE LA MANCHA,-1.908778,Tarazona de la Mancha,1.532,1.135,,,1.565,,,ALBACETE,COOP. LA UNION AB
"AVENIDA ALBACETE, 35",L-D: 24H,39.256194,TARAZONA DE LA MANCHA,-1.912194,Tarazona de la Mancha,1.569,,,,1.629,,,ALBACETE,LA GAVIOTA GASOLINERAS
"CL AVENIDA DE LA RODA, 1",L-D: 07:00-23:00,39.25975,TARAZONA DE LA MANCHA,-1.911389,Tarazona de la Mancha,1.689,,1.749,,1.719,1.769,,ALBACETE,REPSOL
"AVENIDA GUARDIA CIVIL, 162",L-D: 06:00-23:00,38.601722,TOBARRA,-1.680833,Tobarra,1.569,,,,1.649,,,ALBACETE,NTRA. SRA. DE LA ENCARNACION
"AVENIDA GUARDIA CIVIL, 233",L-D: 24H,38.602278,TOBARRA,-1.680917,Tobarra,1.739,1.409,1.819,,1.779,,1.919,ALBACETE,REPSOL
"CAMINO CAMINO DEL GUIJARRAL, 0",L-D: 06:00-22:00,38.603306,TOBARRA,-1.694083,Tobarra,1.62,1.3,,,,,,ALBACETE,SAN ROQUE DE TOBARRA S. COOP. DE C-LM
"AVENIDA GUARDIA CIVIL, 114",L-D: 07:00-22:00,38.594639,TOBARRA,-1.685417,Tobarra,1.649,,1.709,,1.749,1.809,,ALBACETE,E.S. TOBARRA
"CALLE SANTA CRUZ, 16",L-D: 24H,39.137222,VALDEGANGA,-1.680944,Valdeganga,1.644,1.269,,,1.682,,,ALBACETE,NO HAY
"CALLE DEL VINO, 10",L-D: 24H,39.2935,VILLALGORDO DEL JUCAR,-2.059556,Villalgordo del Júcar,,1.194,,,,,,ALBACETE,SAN ISIDRO
"CARRETERA CM-3114 KM. 12,7",L-D: 07:30-21:30,39.302389,VILLALGORDO DEL JUCAR,-2.067639,Villalgordo del Júcar,1.619,,,,1.739,,,ALBACETE,E.S EL GORRION
"CARRETERA CENIZATE KM. 1,5",L-D: 00:00-23:59,39.35025,VILLAMALEA,-1.613194,Villamalea,1.569,,,,1.639,,,ALBACETE,CHAMPINTER
"CARRETERA CM-3201 KM. 22,70",L-S: 07:00-21:00; D: 07:00-14:00,39.366861,VILLAMALEA,-1.592778,Villamalea,1.739,1.367,1.799,,1.719,,1.829,ALBACETE,REPSOL
"CALLE VALENCIA, 41",L-D: 24H,39.367333,VILLAMALEA,-1.59325,Villamalea,1.57,1.233,,,,,,ALBACETE,NO TIENE
"CR N-322, 258,8",L-D: 07:00-21:00,38.581722,VILLAPALACIOS,-2.626222,Villapalacios,1.719,1.379,1.809,,1.819,,1.949,ALBACETE,REPSOL
"CALLE ARQUIMEDES, 62",L-S: 07:00-22:00,39.282167,VILLARROBLEDO,-2.583778,Villarrobledo,1.619,1.359,,,1.679,,,ALBACETE,"COMBUSTIBLES FIEL, S.L."
"CALLE DOS DE MAYO, 167",L-D: 06:00-00:00,39.278222,VILLARROBLEDO,-2.602028,Villarrobledo,1.729,1.399,1.779,,1.769,1.809,,ALBACETE,REPSOL
"CARRETERA N-310 KM. 120,5",L-V: 07:00-21:00; D: 14:00-21:00,39.198,VILLARROBLEDO,-2.713722,Villarrobledo,1.729,1.489,1.799,,1.769,,1.901,ALBACETE,CEPSA
"AVENIDA REYES CATOLICOS, 133",L-D: 06:00-23:00,39.277056,VILLARROBLEDO,-2.591722,Villarrobledo,1.719,,1.809,,1.739,,1.881,ALBACETE,BP VILLARROBLEDO
"AVENIDA REYES CATOLICOS, 150",L-D: 24H,39.278333,VILLARROBLEDO,-2.590194,Villarrobledo,1.749,,,,,,,ALBACETE,PAÑALON
"CARRETERA NACIONAL 310 KM. 137,7",L-S: 07:00-22:00,39.293722,VILLARROBLEDO,-2.567139,Villarrobledo,1.689,,1.749,,1.719,,1.839,ALBACETE,REPSOL
"AVENIDA REYES CATOLICOS, 26",L-V: 07:00-21:00; S: 08:00-13:00,39.261472,VILLARROBLEDO,-2.599417,Villarrobledo,1.769,,1.849,,1.799,,,ALBACETE,CEPSA
"AVENIDA REYES CATÓLICOS (APARCAMIENTO DEL CARREFOUR), S/N",L-S: 08:00-22:00,39.285722,VILLARROBLEDO,-2.579639,Villarrobledo,1.699,,1.739,,1.749,,1.829,ALBACETE,CARREFOUR
"CALLE FERNANDO ZEPPELIN, 13",L-D: 00:00-23:59,39.268472,VILLARROBLEDO,-2.587083,Villarrobledo,,,,,,,,ALBACETE,MOLGAS
"AVENIDA REYES CATOLICOS, S/N",L-D: 06:00-22:00,39.276944,VILLARROBLEDO,-2.590028,Villarrobledo,1.709,,1.769,,1.739,,1.859,ALBACETE,AVIA
"CALLE NOBEL, 64",L-S: 08:00-20:00,39.283917,VILLARROBLEDO,-2.583361,Villarrobledo,1.604,,1.634,,1.689,,,ALBACETE,COMBUSTIBLES DISPROSIO S.L.
AUTOVIA A-43 KM. 129,L-D: 24H,39.258778,VILLARROBLEDO,-2.586778,Villarrobledo,1.739,,1.809,,1.809,,1.941,ALBACETE,REPSOL
CARRETERA OSSA DE MONTIEL KM. 21,L-S: 06:00-22:00; D: 06:00-15:00,39.257528,VILLARROBLEDO,-2.613778,Villarrobledo,1.689,1.399,1.749,,1.719,,1.839,ALBACETE,REPSOL
"AVENIDA REYES CATÓLICOS, 108",L-D: 06:00-22:00,39.272056,VILLARROBLEDO,-2.594111,Villarrobledo,1.694,,1.784,,1.714,,,ALBACETE,GALP
"CALLE GENERAL MARTI, 2",L-D: 24H,39.266417,VILLARROBLEDO,-2.596944,Villarrobledo,1.599,,,,1.679,,,ALBACETE,PLENOIL
AUTOVIA A-43 KM. 390,L-D: 06:00-23:59,39.205194,VILLARROBLEDO,-2.708528,Villarrobledo,1.729,,1.799,,1.774,,1.906,ALBACETE,CEPSA
CARRETERA DE LAS MESAS KM. 005,L-D: 06:00-22:30,39.27225,VILLARROBLEDO,-2.617083,Villarrobledo,1.729,1.379,1.799,,1.769,,1.859,ALBACETE,ESTACIÓN DE SERVICIO LOS VIÑEDOS
"CARRETERA MUNERA KM. 0,500",L-D: 24H,39.250806,VILLARROBLEDO,-2.601028,Villarrobledo,1.527,1.168,,,1.564,,,ALBACETE,VINICOLA DE VILLARROBLEDO
CARRETERA DE HELLIN KM. 42,L-D: 07:00-21:00,38.368667,YESTE,-2.314667,Yeste,1.729,,1.815,,1.779,,,ALBACETE,CEPSA
AUTOPISTA AP 7 KM. 696,L-D: 24H,38.406528,AGOST,-0.599972,Agost,1.774,,1.844,,1.874,,1.994,ALICANTE,GALP
CARRETERA SAN VICENTE - AGOST KM. 11,L-D: 06:00-22:00,38.434417,AGOST,-0.63725,Agost,1.749,1.349,1.809,,1.799,,,ALICANTE,PETRONOR
AUTOPISTA AP 7 KM. 696,L-D: 24H,38.408861,AGOST,-0.599444,Agost,1.774,,1.864,,1.874,,1.994,ALICANTE,GALP
CARRETERA AGOST-NOVELDA KM 2 KM. 2,L-D: 06:00-22:00,38.429417,AGOST,-0.66225,Agost,1.735,1.309,1.82,,1.795,,1.829,ALICANTE,CEPSA
"CALLE POLIGONO INDUSTRIAL MOS DEL BOU, CALLE EL ESPARTO, 5",L-D: 24H,38.168111,ALBATERA,-0.889167,Albatera,1.729,,1.799,,1.769,,,ALICANTE,SUVER GASOLEOS
"N-340 km 696,7",L-D: 24H,38.199417,ALBATERA,-0.848722,Albatera,1.759,,1.849,,1.809,,1.949,ALICANTE,REPSOL
"CARRETERA CATRAL-ALBATERA KM. 4,2",L-D: 24H,38.175028,ALBATERA,-0.854056,Albatera,1.769,1.501,1.869,,1.805,,1.965,ALICANTE,REPSOL
"CARRETERA N-340 KM. 696,7",L-D: 24H,38.165222,ALBATERA,-0.89475,Albatera,1.759,1.499,1.849,,1.809,,1.949,ALICANTE,REPSOL
"CARRETERA N-340 KM. 702,1",L-D: 06:00-22:00,38.199389,ALBATERA,-0.848833,Albatera,1.719,,1.789,,1.769,,,ALICANTE,FTH
"POLIGONO PLAZA MOSQUERA, 6",L-D: 24H,38.751972,ALCALALI,-0.042083,Alcalalí,1.719,,1.809,,1.809,,,ALICANTE,REPSOL
"CALLE ALICANTE, 62",L-D: 05:00-23:00,38.688639,ALCOY/ALCOI,-0.479611,Alcoy/Alcoi,1.679,,1.759,,1.749,,1.889,ALICANTE,SHELL
"CALLE ALACANT, 101",L-D: 24H,38.683806,ALCOY/ALCOI,-0.471194,Alcoy/Alcoi,1.575,,,,1.625,,,ALICANTE,PLENOIL
"CALLE ALICANTE, 62",L-D: 24H,38.689083,ALCOY/ALCOI,-0.479694,Alcoy/Alcoi,1.599,,,,1.699,,,ALICANTE,MASOIL ALCOY
"CALLE VALENCIA ESQ C/SANT JOAN BOSCO, 1",L-D: 24H,38.711556,ALCOY/ALCOI,-0.46625,Alcoy/Alcoi,1.589,,,,1.659,,,ALICANTE,GASEXPRESS
"Alicante, 1 - P.I. Beniata",L-D: 24H,38.695083,ALCOY/ALCOI,-0.477972,Alcoy/Alcoi,1.574,,,,1.624,,,ALICANTE,GASOLINERA ALCOY
"AVENIDA TIRANT, S/N",L-D: 06:00-22:00,38.70875,ALCOY/ALCOI,-0.472556,Alcoy/Alcoi,1.739,,1.839,,1.779,,1.929,ALICANTE,REPSOL
"N-340 km 131,000",L-D: 06:00-22:00,38.683389,ALCOY/ALCOI,-0.471306,Alcoy/Alcoi,1.624,,1.694,,1.689,,1.829,ALICANTE,GALP
"PG COTES BAIXES,CALLE C,PARC.1, 0",L-D: 06:00-22:00,38.714361,ALCOY/ALCOI,-0.462528,Alcoy/Alcoi,1.739,,1.839,,1.779,1.819,1.929,ALICANTE,REPSOL
"CALLE OLIVER, 72",L-D: 06:00-22:00,38.691972,ALCOY/ALCOI,-0.489722,Alcoy/Alcoi,1.739,,1.829,,1.789,,1.929,ALICANTE,PETRONOR
"AVINGUDA PAIS VALENCIÁ, 37",L-D: 24H,38.580639,ALFAS DEL PI (L'),-0.104972,Alfàs del Pi (l'),1.599,,,,1.679,,,ALICANTE,BEROIL
"AVENIDA PAIS VALENCIÁ, 47",L-D: 24H,38.58225,ALFAS DEL PI (L'),-0.106167,Alfàs del Pi (l'),1.597,,,,1.667,,,ALICANTE,PLENOIL
"AVENIDA ALBIR, 90",L-D: 24H,38.574028,ALFAS DEL PI (L'),-0.076694,Alfàs del Pi (l'),1.597,,,,1.667,,,ALICANTE,PLENOIL
CL AVDA. DEL PAIS VALENCIANO S.N.,L-D: 06:00-22:00,38.581361,ALFAS DEL PI (L'),-0.105389,Alfàs del Pi (l'),1.729,,1.829,,1.829,,1.989,ALICANTE,REPSOL
"CALLE MALLORCA, CTRA. CV-763, 1",L-D: 07:00-23:00,38.571139,ALFAS DEL PI (L'),-0.0965,Alfàs del Pi (l'),1.749,,1.839,,1.849,,1.991,ALICANTE,BP ALFAZ DEL PI
"AP-1535 km 2,000",L-D: 06:00-22:00,38.567722,ALFAS DEL PI (L'),-0.082972,Alfàs del Pi (l'),1.679,,1.749,,1.764,,1.894,ALICANTE,GALP
"POLIGONO SECTOR VIII - EL ZOCO, S/N",L-D: 06:00-22:00,38.058389,ALGORFA,-0.746611,Algorfa,1.769,,1.859,,1.829,,1.971,ALICANTE,BP EL ZOCO
"CALLE SAN JUAN, 32",L-D: 06:30-21:00,38.339222,ALGUEÑA,-0.998222,Algueña,1.729,1.419,1.779,,1.779,,,ALICANTE,CEPSA
"AVENIDA PADRE ESPLÁ, 36",L-V: 07:30-21:00; S: 08:00-15:00; D: 09:30-14:30,38.357,ALICANTE/ALACANT,-0.47675,Alicante/Alacant,1.739,,,,1.789,,,ALICANTE,REPSOL
"AVENIDA DENIA, 80",L-D: 24H,38.359278,ALICANTE/ALACANT,-0.466972,Alicante/Alacant,1.739,,1.829,,1.809,,1.951,ALICANTE,BP SANDOVAL MD
"AVENIDA DENIA, 75",L-D: 24H,38.359667,ALICANTE/ALACANT,-0.467361,Alicante/Alacant,1.739,,1.829,,1.809,,1.951,ALICANTE,BP SANDOVAL MI
"CALLE BULEVAR TEULADA, 86",L-D: 24H,38.364194,ALICANTE/ALACANT,-0.499917,Alicante/Alacant,1.569,,,,1.698,,,ALICANTE,AVANZA LOW COST
"AVENIDA UNIVERSIDAD, S/N",L-D: 24H,38.374139,ALICANTE/ALACANT,-0.506833,Alicante/Alacant,1.714,,1.794,,1.779,,1.919,ALICANTE,SHELL
"AVENIDA DE LA UNIVERSIDAD, SN",L-D: 24H,38.376194,ALICANTE/ALACANT,-0.508861,Alicante/Alacant,1.749,,1.829,,1.809,,1.969,ALICANTE,REPSOL
"AVENIDA NOVELDA, 179",L-D: 07:00-00:00,38.370222,ALICANTE/ALACANT,-0.4975,Alicante/Alacant,1.739,,1.839,,1.799,,1.959,ALICANTE,REPSOL
"CALLE FORTUNY, S/N",L-V: 07:30-21:30; S-D: 08:30-14:30,38.375333,ALICANTE/ALACANT,-0.499444,Alicante/Alacant,1.739,,1.819,,1.799,,1.959,ALICANTE,REPSOL
"CALLE JATIVA, S/N",L-D: 24H,38.377722,ALICANTE/ALACANT,-0.504722,Alicante/Alacant,1.545,,,,1.619,,,ALICANTE,GM OIL
"AVENIDA NOVELDA, 74",L-D: 24H,38.364222,ALICANTE/ALACANT,-0.494333,Alicante/Alacant,1.547,,,,1.687,,,ALICANTE,PLENOIL
"AVENIDA JIJONA, 88",L-S: 06:30-22:30; D: 07:00-22:30,38.358556,ALICANTE/ALACANT,-0.483944,Alicante/Alacant,1.759,,1.829,,1.819,,1.969,ALICANTE,REPSOL
"AVENIDA GASTON CASTELLO, 58",L-D: 07:00-21:00,38.375111,ALICANTE/ALACANT,-0.486944,Alicante/Alacant,1.779,,1.855,,1.839,,,ALICANTE,CEPSA
"AVENIDA ANTONIO RAMOS CARRATALA, 56",L-D: 24H,38.370694,ALICANTE/ALACANT,-0.466806,Alicante/Alacant,1.547,,1.609,,1.619,,1.766,ALICANTE,ALCAMPO
"AVDA. DE LA CONDOMINA, 47 (C-190 km 3,7)",L-D: 24H,38.363639,ALICANTE/ALACANT,-0.434556,Alicante/Alacant,1.725,,1.825,,1.794,1.894,,ALICANTE,CEPSA
"AVENIDA DENIA, 60",L-D: 24H,38.355389,ALICANTE/ALACANT,-0.472306,Alicante/Alacant,1.749,,1.829,,1.809,,1.949,ALICANTE,GOTETA
"AVENIDA DENIA, 150",L-D: 07:00-23:00,38.375472,ALICANTE/ALACANT,-0.453806,Alicante/Alacant,1.739,,1.829,,1.809,,1.951,ALICANTE,BP VISTAHERMOSA
"AVENIDA DENIA, 0",L-D: 24H,38.371389,ALICANTE/ALACANT,-0.457694,Alicante/Alacant,1.547,,,,1.619,,,ALICANTE,PLENOIL
"CALLE ANTONIO RAMOS CARRATALÁ, 26",L-D: 24H,38.369889,ALICANTE/ALACANT,-0.464083,Alicante/Alacant,1.547,,,,1.619,,,ALICANTE,PLENOIL
"VIAL CONEXION N-332 Y A-7, S/N",L-D: 06:00-22:00,38.37,ALICANTE/ALACANT,-0.446667,Alicante/Alacant,1.749,,1.839,,1.809,,1.959,ALICANTE,GALP
"VIAL FLORA DE ESPAÑA, 28",L-D: 06:30-22:00,38.369111,ALICANTE/ALACANT,-0.444778,Alicante/Alacant,1.738,,1.816,,1.788,,1.937,ALICANTE,PETROALACANT
CARRETERA A-214 KM. 5,L-D: 06:00-22:00,38.401,ALICANTE/ALACANT,-0.47775,Alicante/Alacant,1.739,,1.839,,1.799,,1.959,ALICANTE,REPSOL
"CALLE MUSICO JOSE TORREGROSA, 33",L-D: 24H,38.383583,ALICANTE/ALACANT,-0.48975,Alicante/Alacant,1.569,,,,1.698,,,ALICANTE,AVANZA
"AVENIDA PINTOR GASTON CASTELLO, 1",L-D: 06:00-22:00,38.370083,ALICANTE/ALACANT,-0.486611,Alicante/Alacant,1.739,,1.829,,1.809,,1.951,ALICANTE,BP REJAS VERDES
"AVENIDA NOVELDA, 216",L-D: 24H,38.376944,ALICANTE/ALACANT,-0.499722,Alicante/Alacant,1.545,,,,1.685,,,ALICANTE,PETROPRIX
"AVENIDA NOVELDA, 204",L-D: 24H,38.375972,ALICANTE/ALACANT,-0.498972,Alicante/Alacant,1.559,,,,1.699,,,ALICANTE,VCC ALICANTE
"AVENIDA DE DENIA, 183",L-D: 06:30-22:30,38.385639,SANTA FAZ,-0.449972,Alicante/Alacant,1.759,,1.825,,1.809,1.869,,ALICANTE,E.S. SANTA FAZ
"CARRETERA 112,6 KM. N-332",L-D: 06:30-22:30,38.38625,SANTA FAZ,-0.447417,Alicante/Alacant,1.749,,1.819,,1.809,,1.969,ALICANTE,REPSOL
CARRETERA MADRID ESQ.RIO JUCAR KM. 19,L-V: 06:00-22:00; S-D: 07:00-21:00,38.344611,ALICANTE/ALACANT,-0.522944,Alicante/Alacant,1.749,,1.829,,1.799,,1.959,ALICANTE,REPSOL
"CALLE OCAÑA, 16",L-D: 24H,38.345056,ALICANTE/ALACANT,-0.522278,Alicante/Alacant,1.559,,,,1.699,,,ALICANTE,BALLENOIL
"POLIGONO PLA VALLONGA CALLE 8, PARCELA 15",L-V: 06:00-21:00; S: 07:00-15:00,38.34825,ALICANTE/ALACANT,-0.555389,Alicante/Alacant,1.738,1.459,1.816,,1.788,,1.937,ALICANTE,PETROALACANT
"AVENIDA NEPTUNO, 4",L-V: 06:00-22:00; S: 07:00-15:00,38.344,ALICANTE/ALACANT,-0.524194,Alicante/Alacant,1.733,,1.823,,1.798,,1.943,ALICANTE,CONFORT AUTO
"AVDA. ORIHUELA, S/N - ESQUINA VIA PARQUE",L-D: 06:00-00:00,38.345583,ALICANTE/ALACANT,-0.517889,Alicante/Alacant,1.744,,1.824,,1.794,,1.934,ALICANTE,SHELL
CARRETERA N-330 KM. 409,L-D: 06:30-21:00,38.344944,ALICANTE/ALACANT,-0.523167,Alicante/Alacant,1.749,,1.829,,1.799,,1.959,ALICANTE,PETRONOR
"CARRETERA N-330A KM. 407,7",L-V: 05:00-22:00; S: 07:00-14:00,38.343611,ALICANTE/ALACANT,-0.545111,Alicante/Alacant,1.775,,1.845,,1.815,,,ALICANTE,CEPSA
"CALLE ARTES GRAFICAS, 89",L-D: 24H,38.335694,ALICANTE/ALACANT,-0.512833,Alicante/Alacant,1.639,,,,1.699,,1.799,ALICANTE,TAMOIL
"CALLE COMUNICACIONES, DE LAS, 10",L-D: 08:00-23:00,38.336083,ALICANTE/ALACANT,-0.517389,Alicante/Alacant,1.73,,,,,,,ALICANTE,ALSA
"AVENIDA RAMÓN GÓMEZ SEMPERE, 4",L-D: 06:00-22:00,38.330583,ALICANTE/ALACANT,-0.5135,Alicante/Alacant,1.749,,1.839,,1.809,,1.959,ALICANTE,GALP
"AVENIDA ELCHE (N-332 P.K. 102), 16",L-D: 24H,38.337778,ALICANTE/ALACANT,-0.500389,Alicante/Alacant,1.755,,1.875,,1.819,1.939,,ALICANTE,CEPSA
"AVENIDA ELCHE, 150",L-D: 24H,38.303611,ALICANTE/ALACANT,-0.521389,Alicante/Alacant,1.559,,,,1.699,,,ALICANTE,PETROPRIX
"AVENIDA ALCALDE LORENZO CARBONELL, 71",L-D: 06:00-22:00,38.338611,ALICANTE/ALACANT,-0.516,Alicante/Alacant,1.755,,1.875,,1.819,1.939,,ALICANTE,CEPSA
"CALLE ALCALDE LORENZO CARBONELL, S/N ESQUINA VIA PARQUE, S/N",L-D: 24H,38.340028,ALICANTE/ALACANT,-0.51775,Alicante/Alacant,1.749,,1.789,,1.799,,,ALICANTE,CARREFOUR
"N-330-P.K. 409,1 P.I. El Espartal",L-V: 06:00-22:00; S: 06:00-14:00,38.34525,ALICANTE/ALACANT,-0.520556,Alicante/Alacant,1.749,,1.839,,1.809,,1.959,ALICANTE,GALP
CARRETERA OCAÑA KM. 7,L-D: 24H,38.344917,ALICANTE/ALACANT,-0.518333,Alicante/Alacant,1.738,,1.816,,1.788,,1.937,ALICANTE,PETRO ALACANT
Rosa de los Vientos (esq. Camino Viejo de Elche),L-V: 06:00-22:00; S-D: 06:00-14:00,38.337778,ALICANTE/ALACANT,-0.523139,Alicante/Alacant,1.749,,1.839,,1.809,,1.959,ALICANTE,GALP
"POLIGONO ZONA INDUSTRIAL A, POLIGONO B, S/N",L-D: 24H,38.344139,BACAROT (EL),-0.538472,Alicante/Alacant,1.785,1.459,1.865,,1.829,1.909,,ALICANTE,CEPSA
"CARRETERA CV 820 KM. 1,3",L-D: 06:00-22:00,38.4115,MORALET,-0.565444,Alicante/Alacant,1.749,,1.819,,1.809,,1.939,ALICANTE,REPSOL
"CARRETERA CV 820 KM. 1,4",L-D: 24H,38.411,MORALET,-0.565972,Alicante/Alacant,1.679,,1.729,,1.759,,1.999,ALICANTE,AQUAVEL
"CARRETERA BACAROT, 4 KM.",L-V: 08:00-14:00 y 16:00-18:00; S: 08:00-12:00,38.343333,ALICANTE/ALACANT,-0.545833,Alicante/Alacant,,1.3,,,,,,ALICANTE,AGRICOOP
"AVENIDA DEL EURO, 9",L-D: 24H,38.340861,ALICANTE/ALACANT,-0.57275,Alicante/Alacant,1.641,,,,1.725,,,ALICANTE,PARCELOGIC
"CALLE DEL RUBLO PARC R75, 75",L-V: 06:00-22:00; S: 07:00-14:00,38.338278,ALICANTE/ALACANT,-0.566472,Alicante/Alacant,1.799,,,,1.839,,,ALICANTE,ATALAYAS
"AVENIDA ORIHUELA, 17",L-D: 06:00-00:00,38.104778,ALMORADI,-0.797083,Almoradí,1.759,1.449,1.859,,1.829,,1.959,ALICANTE,REPSOL
"AVENIDA COMUNIDAD EUROPEA, 1",L-D: 06:30-22:30,38.099361,ALMORADI,-0.796528,Almoradí,1.629,1.399,1.699,,1.739,,1.909,ALICANTE,LAS MAROMAS
"Principe De EspañA, 10",L-V: 06:00-22:00; S-D: 07:00-22:00,38.115139,ALMORADI,-0.78875,Almoradí,1.759,,1.849,,1.829,,1.971,ALICANTE,BP
CARRETERA DE ROJALES KM. 1,L-S: 06:00-22:00; D: 07:00-21:00,38.103833,ALMORADI,-0.781472,Almoradí,1.589,,1.659,,1.699,1.779,,ALICANTE,GASOLEO EXPRES
"CALLE PARTIDA DE LA ERA ALTA, 57",L-D: 24H,38.122583,ALMORADI,-0.783083,Almoradí,1.579,,,,1.689,,,ALICANTE,PETROPRIX
"CARRETERA C-3321 KM. 38,1",L-D: 06:00-22:00,38.123556,ALMORADI,-0.781806,Almoradí,1.739,1.394,1.819,,1.804,1.885,,ALICANTE,CEPSA
"CALLE CUESTA DE LAS NARICES, 11",L-D: 24H,38.594194,ALTEA,-0.056056,Altea,1.597,,,,1.667,,,ALICANTE,PETROPRIX
"CALLE GARGANES, 42",L-D: 06:00-00:00,38.604722,ALTEA,-0.048611,Altea,1.739,,1.819,,1.839,,1.999,ALICANTE,REPSOL
"CARRETERA N-332 KM. 155,5",L-D: 06:00-22:00,38.586556,ALTEA,-0.064694,Altea,1.739,,1.819,,1.829,,1.989,ALICANTE,REPSOL
"CARRETERA LA NUCIA KM. 2,8",L: 07:00-22:00,38.605917,ALTEA,-0.078472,Altea,1.729,,1.809,,1.829,,1.989,ALICANTE,REPSOL
"Carrer De La Mar, 157",L-D: 07:00-23:00,38.593222,ALTEA,-0.054917,Altea,1.739,,1.829,,1.839,,1.989,ALICANTE,GALP
"CARRETERA CV-755 KM. 9,2",L-D: 06:00-22:00,38.62675,ALTEA LA VELLA,-0.0385,Altea,1.778,,1.869,,1.859,,1.999,ALICANTE,CEPSA ELF
CARRETERA NOVELDA KM. 22,L-V: 06:00-22:00; S: 08:00-15:00,38.358167,ASPE,-0.770917,Aspe,1.701,,1.791,,1.769,,1.903,ALICANTE,CONFORT AUTO
AVD.DE NAVARRA 151,L-D: 07:00-22:00,38.354028,ASPE,-0.772639,Aspe,1.719,,1.789,,1.769,,1.891,ALICANTE,CEPSA ESPAÑA S.A.
"POLIGONO C/ IBI, S/N",L-S: 06:00-22:00,38.356139,ASPE,-0.770417,Aspe,1.719,,1.789,,1.769,,,ALICANTE,LEVANTINA
"AVENIDA AVENIDA DE ORIHUELA, 101",L-D: 24H,38.336861,ASPE,-0.777556,Aspe,1.649,,,,1.699,,,ALICANTE,GALP
CARRETERA NOVELDA KM. 8,L-D: 24H,38.356306,ASPE,-0.772361,Aspe,1.579,,,,1.659,,,ALICANTE,QFS
"AVENIDA TRES DE AGOSTO, 20",L-D: 24H,38.341583,ASPE,-0.773361,Aspe,1.619,,,,1.669,,,ALICANTE,PLENOIL
"POLIGONO TRES HERMANAS   ALCOHOLERA, 11",L-S: 06:00-22:00; D: 07:00-15:00,38.325917,ASPE,-0.767139,Aspe,1.759,,1.859,,1.789,,1.949,ALICANTE,BP
"AVENIDA 3 DE AGOSTO, 23",L-D: 06:00-22:00,38.336722,ASPE,-0.774111,Aspe,1.719,1.369,1.789,,1.769,,1.899,ALICANTE,REPSOL
"CALLE PADRE JESUALDO FERRERO, 1",L-D: 06:00-22:00,38.715917,BANYERES DE MARIOLA,-0.664056,Banyeres de Mariola,1.729,,1.799,,1.809,,,ALICANTE,REPSOL
"CALLE LES MOLINES, 35,",L-V: 07:00-13:00,38.720111,BANYERES DE MARIOLA,-0.671194,Banyeres de Mariola,1.679,,1.789,,1.749,,1.859,ALICANTE,BAÑERES
"CALLE DR. SILVESTRE,",L-D: 24H,38.701889,BENEIXAMA,-0.76775,Beneixama,1.629,1.239,,,1.679,,,ALICANTE,COOPERATIVA DIVINA AURORA
"CARRETERA VILLENA-ALCUDIA KM. 10,608",L-D: 06:00-22:00,38.698,BENEIXAMA,-0.771194,Beneixama,1.599,1.439,,,1.659,,1.889,ALICANTE,GASOLWIN BENEIXAMA
CARRETERA JACARILLA KM. S/N,L-D: 06:00-22:00,38.076944,BENEJUZAR,-0.843056,Benejúzar,1.759,1.399,1.829,,1.859,,1.909,ALICANTE,REPSOL
"CARRETERA N-332 KM. 124,5",L-D: 06:00-22:00,38.557694,BENIDORM,-0.1015,Benidorm,1.669,,1.739,,1.769,,1.909,ALICANTE,GALP
CARRETERA CV-70 KM. 47,L-D: 24H,38.559583,BENIDORM,-0.134444,Benidorm,1.749,,1.849,,1.839,1.889,1.999,ALICANTE,REPSOL
"CARRETERA N-332 KM. 124,5",L-D: 06:00-22:00,38.558056,BENIDORM,-0.101917,Benidorm,1.669,,1.739,,1.769,,1.909,ALICANTE,GALP
"AVENIDA COMUNIDAD VALENCIANA, 18",L-D: 24H,38.544194,BENIDORM,-0.11925,Benidorm,1.739,,1.829,,1.839,,1.981,ALICANTE,BP BENIDORM
"AVENIDA VILLAJOYOSA LA, 34",L-D: 24H,38.533639,BENIDORM,-0.16225,Benidorm,1.739,,1.829,,1.839,,1.981,ALICANTE,BP CALA BENIDORM
"AVENIDA COMUNIDAD VALENCIANA- CAMÍ DEL PALASIET, 2",L-D: 24H,38.551139,BENIDORM,-0.109778,Benidorm,1.589,,,,1.679,,,ALICANTE,PETROENERGY
"AVENIDA DOCTOR SEVERO OCHOA, S/N",L-D: 07:00-23:00,38.543139,BENIDORM,-0.102722,Benidorm,1.739,,1.829,,1.839,,1.981,ALICANTE,BP EUROBENIDORM
"POLIGONO APR 3, 68",L-D: 24H,38.558833,BENIDORM,-0.100972,Benidorm,1.588,,,,1.678,,,ALICANTE,VCC ANOUER
"AVENIDA JAIME I, 23",L-D: 24H,38.541722,BENIDORM,-0.134139,Benidorm,1.739,,1.829,,1.839,,1.981,ALICANTE,BP LA ISLETA
"CALLE ALCALDE FRANCISCO GONZALEZ FERNANDEZ, 32",L-D: 24H,38.077222,BENIJOFAR,-0.745028,Benijófar,1.679,,,,1.779,,,ALICANTE,BENIEXPRESS
"AVENIDA EUROPA, 12",L-D: 24H,38.717667,BENISSA,0.059861,Benissa,1.569,,,,1.669,,,ALICANTE,PLENOIL
CARRETERA MORAIRA-CALPE KM. 3,L-D: 24H,38.677722,BENISSA,0.105778,Benissa,1.566,,,,1.697,,,ALICANTE,VCC BENISSA
"AVENIDA LAS MARINAS, 290",L-D: 07:00-22:00,38.665889,BENISSA,0.084944,Benissa,1.769,,1.859,,1.869,,2.011,ALICANTE,BP CALA FUSTERA
"CALLE MARGENADORS DELS, 8",L-S: 08:00-20:00,38.718611,BENISSA,0.059389,Benissa,1.567,,,,1.669,,,ALICANTE,ROSELLO
"AVINGUDA EUROPA, 34",L-D: 24H,38.719222,BENISSA,0.060556,Benissa,1.599,,,,1.699,,,ALICANTE,MASOIL BENISA
"AVENIDA EUROPA, 8",L-D: 06:00-22:00,38.718139,BENISSA,0.060194,Benissa,1.749,,1.839,,1.839,,1.981,ALICANTE,BP BENISSA
"JUAN DE LA CIERVA,13  POLIGONO INDUSRTIAL LAPEDRERA,",L: 07:00-21:00,38.72675,BENISSA,0.076583,Benissa,1.719,,1.809,,1.799,,1.949,ALICANTE,MEROIL
"CARRETERA CV-740 KM. 6,800",L-D: 07:00-22:00,38.738972,BENITACHELL,0.152139,Benitachell/Poble Nou de Benitatxell (el),1.599,,,,1.799,,1.939,ALICANTE,(SIN RÓTULO)
"CARRETERA ALCOY - VILLENA KM. 38,2",L-D: 06:00-22:00,38.630583,BIAR,-0.786556,Biar,1.759,1.349,1.819,,1.809,,1.919,ALICANTE,REPSOL
"CALLE DEL PROGRESO, 24",L-D: 24H,38.059056,BIGASTRO,-0.884611,Bigastro,1.567,,,,1.707,,,ALICANTE,BIGASOIL
"POLIGONO SECTOR D10, 8",L-D: 24H,38.064861,BIGASTRO,-0.899,Bigastro,1.567,,,,1.709,,,ALICANTE,PLENOIL
"POLIGONO APATEL, 6",L-D: 06:00-22:00,38.059194,BIGASTRO,-0.885222,Bigastro,1.759,,1.809,,1.799,,1.949,ALICANTE,REPSOL
"CALLE EL PI, 1",L-D: 24H,38.477806,BUSOT,-0.424194,Busot,1.719,,,,1.799,,,ALICANTE,ATLANTIS EXPRESS
CARRETERA CV913 KM. 1,L-D: 06:00-22:00,38.125694,CALLOSA DE SEGURA,-0.867333,Callosa de Segura,1.739,,1.829,,1.789,,1.919,ALICANTE,REPSOL
"CARRETERA N-340 KM. 692,9",L-V: 06:00-22:00; S: 07:00-15:00; D: 08:00-14:00,38.143139,CALLOSA DE SEGURA,-0.927583,Callosa de Segura,1.769,,1.869,,1.805,,,ALICANTE,PETRONOR
"CARRETERA CATRAL KM. 0,300",L-V: 06:00-22:00; S-D: 07:00-22:00,38.12775,CALLOSA DE SEGURA,-0.861861,Callosa de Segura,1.759,,1.849,,1.799,,1.941,ALICANTE,"BP OIL ESPAÑA, S.A.U."
"BARRIO SAN JOSE DRCHA, 70",L-D: 07:30-21:30,38.130583,CALLOSA DE SEGURA,-0.858917,Callosa de Segura,1.619,,1.649,,1.699,,,ALICANTE,RITOR DIESEL
"CALLE SAN ISIDRO, 10",L-D: 07:00-22:00,38.6495,CALLOSA D'EN SARRIA,-0.121194,Callosa d'En Sarrià,1.759,1.489,1.849,,1.849,,1.959,ALICANTE,REPSOL
"CALLE L ESPORT, 2",L-D: 24H,38.645444,CALPE,0.050278,Calpe/Calp,1.739,,1.799,,1.839,,1.999,ALICANTE,REPSOL
"AVENIDA AV DIPUTACION S/N,",L-D: 24H,38.646306,CALPE,0.040556,Calpe/Calp,1.579,,1.649,,1.709,,1.939,ALICANTE,Q8
"PARTIDA ESTACION II, 6",L-D: 24H,38.653028,CALPE,0.037306,Calpe/Calp,1.609,,1.629,,1.739,,1.869,ALICANTE,CALPE AUTOMOCION
"AVENIDA DEL PORT, 15/41",L-V: 08:30-13:30 y 15:00-19:00,38.637306,CALPE,0.06925,Calpe/Calp,1.619,,1.719,,1.699,,,ALICANTE,COFRADIA DE PESCADORES
"PARTIDA ESTACION II, 6",L-D: 24H,38.652972,CALPE,0.037806,Calpe/Calp,1.629,,1.689,,1.759,,1.909,ALICANTE,CALPE AUTOMOCION II
"AVINGUDA VALL DE LAGUART, 5",L-D: 24H,38.64575,CALPE,0.051139,Calpe/Calp,1.609,,,,1.739,,,ALICANTE,AUTOFUEL LOW COST
"AVENIDA VALL DE L'AGUART, 11",L-D: 07:00-22:00,38.645694,CALPE,0.052306,Calpe/Calp,1.712,,,,1.823,,1.999,ALICANTE,DRZ
"AVENIDA DIPUTACION, 35",L-D: 24H,38.646306,CALPE,0.04175,Calpe/Calp,1.589,,,,1.719,,,ALICANTE,GASEXPRESS
"CARRETERA N-332 KM. 122,5",L-V: 07:00-21:00; S-D: 08:00-21:00,38.450278,CAMPELLO (EL),-0.374361,Campello (el),1.729,,1.789,,1.779,,1.929,ALICANTE,REPSOL
"CALLE INFANTA, 31",L-V: 06:00-23:00; S-D: 07:00-23:00,38.424083,CAMPELLO (EL),-0.401389,Campello (el),1.749,,1.829,,1.799,1.879,,ALICANTE,CAMPELLO - GOTETA II
"C/ SAN RAMON, 109",L-D: 24H,38.430639,CAMPELLO (EL),-0.399389,Campello (el),1.719,,1.779,,1.799,,1.949,ALICANTE,SHELL
"CALLE SAN RAMON, 125",L-D: 24H,38.4325,CAMPELLO (EL),-0.397194,Campello (el),1.579,,,,1.679,,,ALICANTE,GASEXPRESS CAMPELLO
CARRETERA N-332 KM. 122,L: 06:00-22:00,38.450167,CAMPELLO (EL),-0.373611,Campello (el),1.729,,1.789,,1.779,,1.929,ALICANTE,PETRONOR
"CALLE SAN BARTOLOME, 33",L-D: 06:00-22:00,38.418806,CAMPELLO (EL),-0.393167,Campello (el),1.749,,1.839,,1.789,,1.939,ALICANTE,GALP
"CALLE SAN RAMON 8,",L-D: 06:30-22:00,38.424639,CAMPELLO (EL),-0.406444,Campello (el),1.739,,1.789,,1.799,,,ALICANTE,REPSOL-RIO SECO
"CALLE BIAR, 1",L-D: 24H,38.675278,CAÑADA,-0.804917,Cañada,1.649,1.36,,,,,,ALICANTE,COOPERATIVA SAN CRISTOBAL
"CARRETERA CASTALLA ALICANTE, CV 815 KM. 5,7",L-D: 06:00-22:00,38.57825,CASTALLA,-0.654917,Castalla,1.739,1.359,1.799,,1.809,1.859,1.925,ALICANTE,REPSOL
"CALLE SAN VICENTE DEL RASPEIG, 4",L-D: 24H,38.596361,CASTALLA,-0.663889,Castalla,1.599,,,,1.699,,,ALICANTE,MASOIL CASTALLA
"AVENIDA IBI, 51",L-D: 24H,38.600667,CASTALLA,-0.670139,Castalla,1.599,,,,1.699,,,ALICANTE,LUZOIL
"AVENIDA DE IBI, 46",L-D: 06:00-22:00,38.600944,CASTALLA,-0.669611,Castalla,1.719,,1.799,,1.779,,1.899,ALICANTE,REPSOL
"PURISIMA, 80",L-D: 06:00-22:00,38.167583,CATRAL,-0.803306,Catral,1.719,1.359,1.789,,1.799,,1.859,ALICANTE,BRIOGAS
"CARRETERA CATRAL- CALLOSA DEL SEGURA KM. 5,3",L-D: 24H,38.148111,CATRAL,-0.828444,Catral,1.599,,,,1.699,,,ALICANTE,GASEXPRESS
"AVENIDA AVDA. L'ALTET Nº 2, 2",L-D: 24H,38.730639,COCENTAINA,-0.443278,Cocentaina,1.729,,1.769,,1.779,,1.919,ALICANTE,CARREFOUR
"AVENIDA DE XATIVA, 31",L-D: 24H,38.750778,COCENTAINA,-0.439,Cocentaina,1.579,,,,1.625,,,ALICANTE,PETROPRIX
"AVENIDA ALICANTE, 49",L-D: 06:00-22:00,38.717889,COCENTAINA,-0.45775,Cocentaina,1.739,,1.839,,1.779,,1.929,ALICANTE,REPSOL
"AVENIDA ALTET L', 3",L-D: 24H,38.733333,COCENTAINA,-0.441806,Cocentaina,1.619,,,,1.689,,,ALICANTE,SHELL
"AVENIDA ALACANT, 64",L-D: 24H,38.717972,COCENTAINA,-0.458722,Cocentaina,1.579,,,,1.667,,,ALICANTE,LA 23
"AVENIDA AVENIDA DE ALICANTE, 104",L-D: 24H,38.715167,COCENTAINA,-0.463167,Cocentaina,1.609,,,,1.629,,,ALICANTE,GALP
"AVENIDA DE ALICANTE, 87",L-D: 06:00-22:00,38.715472,COCENTAINA,-0.463639,Cocentaina,1.634,,1.704,,1.679,,1.819,ALICANTE,GALP
"CL AVENIDA PAIS VALENCIA, 117",L-D: 06:00-22:00,38.738722,COCENTAINA,-0.439694,Cocentaina,1.739,,1.839,,1.779,,1.939,ALICANTE,REPSOL
"PARAJE DE SAN ISIDRO, S/Nº",L-S: 05:00-22:00; D: 07:00-22:00,38.141528,COX,-0.899639,Cox,1.699,,,,1.769,,,ALICANTE,PEPE RAMON
"PASEO PRINCIPE DE ASTURIAS, S/N",L-D: 06:00-22:00,38.143889,COX,-0.898861,Cox,1.739,,1.831,,1.779,,1.921,ALICANTE,BP COX
"AVENIDA DEL CARMEN, 94",L-D: 06:00-22:00,38.147139,COX,-0.889278,Cox,1.749,,1.849,,1.779,,1.929,ALICANTE,REPSOL
"P. DE ELCHE, Nº 29-31",L-V: 06:00-22:00; S: 06:00-14:00,38.249167,CREVILLENT,-0.798056,Crevillent,1.759,1.489,1.849,,1.799,,1.949,ALICANTE,MOSCARDÓ
"CARRETERA NACIONAL 340 KM. 707,1",L-D: 07:00-22:00,38.227222,CREVILLENT,-0.822528,Crevillent,1.759,1.501,1.829,,1.789,,1.919,ALICANTE,REPSOL
"CR CV-875 ,P.K. 10,5",L-D: 24H,38.233111,CREVILLENT,-0.791083,Crevillent,1.769,,1.869,,1.805,1.855,1.965,ALICANTE,REPSOL
"P. DE ELCHE, Nº 29-31",L-D: 24H,38.248694,CREVILLENT,-0.797861,Crevillent,1.759,,1.849,,1.799,,1.949,ALICANTE,MOSCARDÓ
"POLIGONO I PARCELA 10, S/N",L-V: 06:00-22:00; S-D: 07:00-22:00,38.244333,CREVILLENT,-0.797861,Crevillent,1.759,,1.849,,1.799,,1.941,ALICANTE,BP  POLIGONO CREVILLENTE
"POLIGONO I7, SN",L-S: 06:00-22:00,38.250861,CREVILLENT,-0.782583,Crevillent,1.769,,1.859,,1.809,,1.959,ALICANTE,BP
"AUTOVIA A-37 KM. 728,2",L-D: 00:00-23:59,38.193028,CREVILLENT,-0.812639,Crevillent,1.759,,1.859,,1.799,,1.959,ALICANTE,REPSOL
AUTOVIA A-37 KM. 728,L-D: 24H,38.196472,CREVILLENT,-0.812333,Crevillent,1.759,,1.849,,1.789,,1.939,ALICANTE,REPSOL
AUTOVIA A7 KM. 526,L-D: 24H,38.233167,CREVILLENT,-0.791,Crevillent,,,,,,,,ALICANTE,HAM
"CR N-340, 707,0",L-D: 24H,38.231556,CREVILLENT,-0.81975,Crevillent,,,1.739,,1.799,,,ALICANTE,H.S
"PASEO DE ELCHE, 7",L-D: 24H,38.248167,CREVILLENT,-0.801139,Crevillent,1.599,,,,1.699,,,ALICANTE,PLENOIL
"PARTIDA MADRIGUERES SUD, 25",L-D: 24H,38.837306,DENIA,0.084556,Dénia,1.648,,,,1.748,,,ALICANTE,TECKMAR
"AVENIDA MONTGO, 34",L-D: 06:00-23:00,38.832667,DENIA,0.102111,Dénia,1.749,,1.849,,1.829,,1.999,ALICANTE,BP
"CAMINO SANTA LLÚCIA, 1",L-D: 24H,38.834083,DENIA,0.113222,Dénia,1.719,,,,1.799,,,ALICANTE,SHELL
"PARTIDA MADRIGUERES SUD, 61",L-D: 24H,38.835694,DENIA,0.09375,Dénia,1.749,,,,1.83,,,ALICANTE,REPSOL COMERCIAL
CARRETERA LAS MARINAS KM. 177,L-D: 24H,38.858444,DENIA,0.056806,Dénia,1.648,,,,1.748,,,ALICANTE,GASDEN
"CARRETERA DENIA A ONDARA C-3311 KM. 0,5",L-D: 06:00-22:00,38.839,DENIA,0.094417,Dénia,1.719,,1.789,,,1.849,1.989,ALICANTE,GALP
"CTRA. LAS MARINAS km 0,85",L-D: 06:00-22:00,38.848333,DENIA,0.099722,Dénia,1.709,,1.799,,1.799,,1.949,ALICANTE,MOSCARDÓ
"CALLE AVENIDA VALENCIA, 44",L-D: 24H,38.839583,DENIA,0.098194,Dénia,1.739,,1.839,,1.839,,1.999,ALICANTE,REPSOL
"PARTIDA PARTIDA MADRIGUERES SUD, 5 - PARKING HIPERMERCADO CARREFOUR DENIA,",L-S: 07:00-22:00; D: 08:00-22:00,38.836917,DENIA,0.095056,Dénia,1.689,,1.759,,1.789,,1.939,ALICANTE,Q8
"CALLE MAESTRO SERRANO, 1",L-V: 07:00-21:00; S: 08:00-21:00; D: 08:00-20:00,38.139722,DOLORES,-0.774889,Dolores,1.759,,1.839,,1.819,,1.969,ALICANTE,REPSOL
"CARRETERA AP-3061 KM. 15,5",L-V: 07:00-20:00,38.140889,DOLORES,-0.748556,Dolores,1.739,1.394,1.865,,1.804,,1.936,ALICANTE,CEPSA
"CARRETERA CV905 KM. 0,800",L-D: 06:00-22:00,38.131278,DOLORES,-0.775194,Dolores,1.719,1.379,1.789,,1.799,,1.859,ALICANTE,MAYAYO
"AVENIDA ALCALDE VICENTE QUILES, 4",L-D: 06:00-23:00,38.2725,ELCHE/ELX,-0.690833,Elche/Elx,1.659,,1.813,,1.7,,1.947,ALICANTE,LA ESTACION
"CL AVENIDA DE ALICANTE, 72",L-V: 06:00-22:00; S-D: 07:00-22:00,38.269472,ELCHE/ELX,-0.682194,Elche/Elx,1.759,,1.859,,1.799,1.839,1.959,ALICANTE,REPSOL
"CALLE MALLORCA, 12",L-J: 06:30-23:00; V: 06:30-23:59; S: 07:00-23:59; D: 07:00-23:00,38.269944,ELCHE/ELX,-0.67075,Elche/Elx,1.749,,1.839,,1.789,,1.939,ALICANTE,E.S. EL POLIGONO
"CALLE GALILEO GALILEI, 14",L: 24H,38.288139,ELCHE/ELX,-0.611667,Elche/Elx,1.569,,,,1.649,,,ALICANTE,GM OIL ELCHE
"CALLE SANTIAGO RAMON Y CAJAL, 35",L-V: 06:00-22:00; S: 07:00-14:00,38.296528,ELCHE/ELX,-0.614861,Elche/Elx,1.723,,1.813,,1.787,,1.937,ALICANTE,CONFORT AUTO
"CALLE MIGUEL SERVET, 4",L-V: 06:30-22:30; S: 06:30-20:30; D: 08:00-16:00,38.298056,ELCHE/ELX,-0.614472,Elche/Elx,1.729,,1.829,,1.799,,1.939,ALICANTE,SHELL
"CALLE ALICANTE-ALTET, 122",L-D: 24H,38.271583,ELCHE/ELX,-0.673944,Elche/Elx,1.579,,,,1.679,,,ALICANTE,PLENOIL
PARTIDA ALTABIX.POL. 1 NO 203 (AV DEL BIMILENARIO S/N),L-D: 24H,38.283139,ELCHE/ELX,-0.684083,Elche/Elx,1.757,,1.847,,1.797,,1.947,ALICANTE,CEPSA LA GALIA
"CALLE ALMANSA, 62",L-J: 06:00-23:00; V-S: 06:00-23:59; D: 06:30-23:00,38.278972,ELCHE/ELX,-0.719639,Elche/Elx,1.749,,1.839,,1.799,,1.939,ALICANTE,MORA
"PARTIDA ALTABIX POLIGONO 3   (CAMINO DE CASTILLA), 37",L-D: 06:30-22:00,38.29325,ELCHE/ELX,-0.675417,Elche/Elx,1.729,,1.729,,1.799,,1.939,ALICANTE,ABIERTO (SERVICIO ATENDIDO)
CARRETERA ALICANTE - MURCIA KM. 53,L-D: 24H,38.258583,ELCHE/ELX,-0.73025,Elche/Elx,1.759,,1.799,,1.779,,1.949,ALICANTE,CARREFOUR
Avda. de la Libertad - Salida N-340 (Crevillente),L-D: 06:00-22:00,38.260389,ELCHE/ELX,-0.71825,Elche/Elx,1.754,,1.804,,1.769,,1.909,ALICANTE,GALP
"CALLE ALCORCÓN, 27",L-D: 24H,38.263639,ELCHE/ELX,-0.723694,Elche/Elx,1.579,,,,1.679,,,ALICANTE,PLENOIL
"CARRETERA N-340A KM. 716,3",L-D: 24H,38.258694,ELCHE/ELX,-0.734333,Elche/Elx,1.769,,,,1.789,,,ALICANTE,CEPSA
"CALLE PANAMA, S/N",L-D: 24H,38.261444,ELCHE/ELX,-0.721806,Elche/Elx,1.579,,,,1.679,,,ALICANTE,PETROPRIX
"CALLE PANAMA, 5",L-D: 24H,38.261528,ELCHE/ELX,-0.718056,Elche/Elx,1.579,,,,1.685,,,ALICANTE,E.S. PLUSOIL
"CALLE ECUADOR, 12",L-D: 07:00-23:00,38.264139,ELCHE/ELX,-0.72375,Elche/Elx,1.757,,1.847,,1.807,,1.947,ALICANTE,BP ALJUB
"CALLE ECUADOR, 8",L-D: 24H,38.263583,ELCHE/ELX,-0.7235,Elche/Elx,1.573,,,,1.673,,,ALICANTE,EL CANARI
"AVINGUDA DE CREVILLENTE, 36",L-D: 24H,38.260222,ELCHE/ELX,-0.722333,Elche/Elx,1.579,,1.589,,1.679,,,ALICANTE,BALLENOIL
"AVINGUDA DE CREVILLENTE, 4",L-V: 07:00-22:00; S: 08:00-22:00; D: 08:00-21:30,38.261444,ELCHE/ELX,-0.717444,Elche/Elx,1.585,,1.585,,1.685,,,ALICANTE,GASOLINERA D'ELX (S. ATENDIDO)
"CAMINO CAMINO VIEJO ELCHE/SANTA-POLA KM 0,200, 72",L-D: 06:00-22:00,38.257917,ELCHE/ELX,-0.678278,Elche/Elx,1.759,,1.839,,1.815,,1.945,ALICANTE,REPSOL
"CARRETERA CV-8500 KM. 3,6",L-J: 00:00-02:00 y 06:00-23:59; V-S: 00:00-23:59; D: 00:00-02:00 y 06:00-23:59,38.251028,ELCHE/ELX,-0.698306,Elche/Elx,1.769,,1.869,,1.809,1.849,1.969,ALICANTE,REPSOL
"AVENIDA NOVELDA, 188",L-V: 06:00-22:00; S-D: 07:00-15:00,38.282778,ELCHE/ELX,-0.721944,Elche/Elx,1.749,,1.839,,1.799,,1.939,ALICANTE,MORA
"CALLE ALMANSA, 19",L-D: 24H,38.280694,ELCHE/ELX,-0.715,Elche/Elx,1.579,,,,1.679,,,ALICANTE,PLENOIL
"CALLE PETRER, 7",L-V: 07:00-22:00; S-D: 08:00-14:00,38.277806,ELCHE/ELX,-0.718417,Elche/Elx,1.585,,1.585,,1.685,,1.775,ALICANTE,GASOLINERA D'ELX (S. ATENDIDO)
"AV DE NOVELDA, 128",L-D: 06:00-22:00,38.278306,ELCHE/ELX,-0.716694,Elche/Elx,1.769,,1.869,,1.809,,1.959,ALICANTE,REPSOL
"RONDA VALL D'UIXO, 52",L-D: 24H,38.283917,ELCHE/ELX,-0.714278,Elche/Elx,1.579,,,,1.679,,,ALICANTE,PETROPRIX
"CALLE SENIJA, 2",L-D: 24H,38.282583,ELCHE/ELX,-0.712472,Elche/Elx,1.579,,,,1.679,,,ALICANTE,BALLENOIL
C/ SOR JOSEFA ALCORTA 71 (ESQ.CTRA.CIRCUNVALACIÓN,L-D: 06:00-00:00,38.2525,ELCHE/ELX,-0.703056,Elche/Elx,1.759,,1.839,,1.809,,1.949,ALICANTE,SHELL
"AVENIDA ANTONIO MACHADO, 51",L-J: 06:30-23:00; V: 06:30-23:59; S: 07:00-23:59; D: 07:00-23:00,38.261861,ELCHE/ELX,-0.708806,Elche/Elx,1.749,,1.839,,1.799,,1.949,ALICANTE,MORA
"CARRETERA N-340, KM727 KM. 727",L-V: 06:00-22:00; S: 08:00-14:00,38.286861,TORRELLANO,-0.614667,Elche/Elx,1.779,,1.849,,1.799,,1.949,ALICANTE,REPSOL
Autovía del Mediterráneo (A-7) a Murcia,L-D: 24H,38.309528,TORRELLANO,-0.605694,Elche/Elx,1.769,,1.839,,1.809,,1.929,ALICANTE,GALP
Autovía del Mediterráneo (A-7) a Valencia,L-D: 24H,38.307972,TORRELLANO,-0.60625,Elche/Elx,1.769,,1.839,,1.809,,1.929,ALICANTE,GALP
"AVENIDA ILLICE, 22",L-D: 24H,38.29175,TORRELLANO,-0.592472,Elche/Elx,1.789,1.459,1.849,,1.789,,1.949,ALICANTE,REPSOL
"CARRETERA ELCHE-ALTET KM. 10,1",L-D: 06:00-23:00,38.278861,ALTET (EL),-0.562944,Elche/Elx,1.739,,1.819,,1.789,,1.909,ALICANTE,FTH
"AVENIDA CARTAGENA DE, 59",L-D: 24H,38.276,ALTET (EL),-0.538778,Elche/Elx,1.789,,1.879,,1.859,,2.009,ALICANTE,REPSOL
"AVENIDA AEROPUERTO DEL TORRELLANO, 125",L: 24H,38.287472,ALTET (EL),-0.563472,Elche/Elx,1.779,1.459,,,,,,ALICANTE,PETROALACANT
"CARRETERA CV-865 KM. 3,6",L-D: 06:00-00:00,38.244861,PERLETA (LA),-0.644583,Elche/Elx,1.769,,1.839,,1.829,,1.959,ALICANTE,REPSOL
"PARTIDA LA MARINA, 307",L-D: 07:00-23:00,38.143611,ELCHE/ELX,-0.664417,Elche/Elx,1.739,,1.809,,1.809,,1.939,ALICANTE,MARINA DE LA PLANA
"CARRETERA CV-875 KM. 6,2",L-S: 07:00-22:00; D: 08:00-15:00,38.216611,ALGODA-MATOLA,-0.761417,Elche/Elx,1.779,1.389,1.845,,1.814,,,ALICANTE,CEPSA
"CALLE ALGORFA, 2",L-D: 06:00-23:00,38.273778,ELCHE/ELX,-0.665417,Elche/Elx,1.759,,1.849,,1.815,,1.959,ALICANTE,BP SAN ANTON
"CARRETERA DOLORES DE KM. 8,3",L-V: 07:00-21:00; S-D: 07:00-20:00,38.177111,ELCHE/ELX,-0.702111,Elche/Elx,1.749,1.465,1.849,,1.779,,,ALICANTE,REPSOL
"CARRETERA N-340 KM. 714,1",L-S: 06:00-22:00; D: 08:00-18:00,38.256778,ELCHE/ELX,-0.74775,Elche/Elx,1.759,,1.859,,1.799,,1.959,ALICANTE,REPSOL
"CARRETERA CARRETERA ELCHE  LA MARINA KM. 6,7",L: 06:00-23:00,38.196,HOYA (LA),-0.678611,Elche/Elx,1.769,1.459,1.859,,1.809,,1.959,ALICANTE,REPSOL
CARRETERA CTRA.ELDA-MONOVAR KM 13 KM. 13,L-D: 06:00-22:00,38.450306,ELDA,-0.812833,Elda,1.499,,,,1.719,,,ALICANTE,V2 GASOLINERAS
"AVENIDA CENTRO EXCURSIONISTA, S/N",L-D: 06:00-22:00,38.470083,ELDA,-0.80625,Elda,1.739,,1.799,,1.789,1.839,1.909,ALICANTE,REPSOL
"CARRETERA C-3213 KM. 15,700",L-D: 06:00-22:00,38.473944,ELDA,-0.80475,Elda,1.739,,1.799,,1.789,,1.909,ALICANTE,REPSOL
"POLIGONO CL ITALIA, ESQUINA CL IRLANDA PARC., 32",L-D: 24H,38.461722,ELDA,-0.816472,Elda,1.599,,,,1.719,,,ALICANTE,BDMED ELDA
"CALLE MEDICO FEDERICO MARTINEZ PEREZ, 1",L-D: 24H,38.464944,ELDA,-0.785361,Elda,1.499,,,,1.599,,,ALICANTE,GASEXPRESS
"CALLE ROMERO,2 - AVDA. LIBERTAD, S/N",L-D: 06:00-23:00,38.491972,ELDA,-0.795194,Elda,1.749,,1.815,,1.804,1.864,,ALICANTE,CEPSA
"AVENIDA MEDITERRANEO, 16",L-D: 06:00-23:59,38.467333,ELDA,-0.78775,Elda,1.724,,1.804,,1.779,,1.919,ALICANTE,SHELL
"AVENIDA MEDITERRANEO, S/N",L-D: 06:00-23:00,38.460056,ELDA,-0.782528,Elda,1.694,,1.76,,1.749,,1.881,ALICANTE,CEPSA
"CALLE CONDES DE ELDA, SN",L-D: 06:00-22:00,38.484944,ELDA,-0.810639,Elda,1.569,,1.669,,1.689,,1.789,ALICANTE,REPOSTANDO
"AVENIDA AUXIAS MARCH, SN",L-V: 06:00-23:00; S-D: 07:00-23:00,38.534806,FINESTRAT,-0.16975,Finestrat,1.789,,1.859,,1.839,1.939,,ALICANTE,CEPSA
"AVENIDA MIGUEL HERNÁNDEZ, 11",L-D: 24H,38.539417,FINESTRAT,-0.170444,Finestrat,1.549,,,,1.649,,,ALICANTE,GM OIL
CARRETERA NUEVA FINESTRATA LA CALA KM. 5,L-D: 24H,38.537389,FINESTRAT,-0.175167,Finestrat,1.729,,1.769,,1.839,,1.989,ALICANTE,CARREFOUR
"AVENIDA PAIS VALENCIA, 20",L-D: 07:00-23:00,38.536444,FINESTRAT,-0.180222,Finestrat,1.698,,1.769,,1.809,,1.949,ALICANTE,ZARCAR
"AVENIDA PICASSO, 41",L-D: 24H,38.533194,FINESTRAT,-0.172639,Finestrat,1.569,,,,1.669,,,ALICANTE,PETROPRIX
"AVENIDA FEDERICO GARCIA LORCA, 21",L-D: 06:00-22:00,38.538722,FINESTRAT,-0.172889,Finestrat,1.739,,1.839,,1.839,,1.999,ALICANTE,REPSOL
"AVENIDA PICASSO, 3",L-D: 24H,38.533722,FINESTRAT,-0.17275,Finestrat,1.719,,1.809,,1.829,,1.979,ALICANTE,REPSOL
"POLIGONO LOS NAZARIOS, C/LOS NAZARIOS, 8",L-D: 06:30-22:30,38.087611,FORMENTERA DEL SEGURA,-0.736889,Formentera del Segura,1.589,,1.659,,1.699,1.779,,ALICANTE,GASOLINERA DE FORMENTERA
"CALLE ACEQUIA DEL RIO, 37",L-D: 06:00-22:00,38.087889,FORMENTERA DEL SEGURA,-0.730694,Formentera del Segura,1.769,,1.859,,1.829,,1.971,ALICANTE,BP FORMENTERA (LOS PALACIOS)
"CARRETERA N-332 KM. 187,5",L-D: 07:00-21:00,38.768111,GATA DE GORGOS,0.098639,Gata de Gorgos,1.729,,1.799,,1.819,,,ALICANTE,REPSOL
"AVENIDA JUAN CARLOS I, S/N",L-D: 24H,38.156,GRANJA DE ROCAMORA,-0.889806,Granja de Rocamora,1.714,,1.784,,1.754,,,ALICANTE,GALP
"CALLE RIO EBRO, 1",L-D: 00:00-23:59,38.154389,GRANJA DE ROCAMORA,-0.882139,Granja de Rocamora,1.649,,,,1.719,,,ALICANTE,JOSBERFUEL
"CARRETERA CV 895 KM. 5,1",L-S: 07:00-21:30; D: 08:00-17:00,38.062278,GUARDAMAR DEL SEGURA,-0.673472,Guardamar del Segura,1.759,1.399,1.839,,1.819,,,ALICANTE,CEPSA
"CALLE FORNERS, 27",L-D: 24H,38.090917,GUARDAMAR DEL SEGURA,-0.660611,Guardamar del Segura,1.639,,,,1.739,,,ALICANTE,SEVEN OIL
"CARRETERA N-332 KM. 32,7",L-D: 06:30-00:00,38.099472,GUARDAMAR DEL SEGURA,-0.663861,Guardamar del Segura,1.759,,1.839,,1.829,,1.959,ALICANTE,REPSOL
"CARRETERA N-332 KM. 32,7",L-D: 06:30-22:30,38.099333,GUARDAMAR DEL SEGURA,-0.664444,Guardamar del Segura,1.769,,1.849,,1.829,,1.959,ALICANTE,REPSOL
"PARTIDA LA REDONDA, S/N",L-D: 06:00-23:00,38.094028,GUARDAMAR DEL SEGURA,-0.66075,Guardamar del Segura,1.739,,1.809,,1.809,,1.939,ALICANTE,GÓMEZ Y SIRVENT
"CARRETERA NACIONAL 332 KM. 65,968",L-D: 07:00-23:00,38.045,GUARDAMAR DEL SEGURA,-0.659222,Guardamar del Segura,1.739,,1.819,,1.804,1.919,,ALICANTE,CEPSA
"CL MADRID, 20-24",L-D: 07:00-23:00,38.095639,GUARDAMAR DEL SEGURA,-0.659111,Guardamar del Segura,1.729,,1.809,,1.819,,1.959,ALICANTE,REPSOL
"AVINGUDA VIRGEN DE LAS NIEVES, S/N",L-S: 06:00-22:00,38.310167,HONDON DE LAS NIEVES,-0.849528,Hondón de las Nieves,1.719,1.369,1.789,,1.769,,,ALICANTE,REPSOL
CARRETERA CTRA. ARCHENA KM. 32,L-D: 06:30-21:00,38.277611,HONDON DE LOS FRAILES,-0.920417,Hondón de los Frailes,1.679,,1.729,,1.739,,,ALICANTE,SANTA CRUZ
AV DE LA PROVIDENCIA S/N,L-D: 06:00-22:00,38.6165,IBI,-0.585583,Ibi,1.749,,1.839,,1.809,,1.951,ALICANTE,BP IBI
"CALLE CARMEN MARIN GAITE, 10",L-D: 24H,38.614333,IBI,-0.578222,Ibi,1.676,,1.736,,1.756,,,ALICANTE,NEFT
"AVENIDA JUAN CARLOS I, 2",L-S: 06:00-22:00; D: 07:00-15:00,38.626556,IBI,-0.567917,Ibi,1.719,,1.779,,1.789,,1.919,ALICANTE,REPSOL
"CALLE LEON (POLIGONO INDUSTRIAL L ALFAÇ III, 3",L-D: 06:00-22:00,38.607972,IBI,-0.593472,Ibi,1.799,,1.865,,1.839,1.899,,ALICANTE,CEPSA
"AVENIDA LA PROVINCIA, N",L-D: 06:00-22:00,38.616889,IBI,-0.585333,Ibi,1.709,1.3,,,1.769,,1.86,ALICANTE,E.S. CAÑIZARES
CARRETERA CV-95 KM. 10,L-V: 07:00-19:00; S: 08:00-13:00,38.041222,JACARILLA,-0.855611,Jacarilla,1.759,,,,1.799,,1.899,ALICANTE,BP JACARILLA
"CARRETERA JACARILLA-BENEJUZAR KM. 2,5",L-D: 24H,38.062972,JACARILLA,-0.859028,Jacarilla,1.749,1.399,1.799,,1.809,,,ALICANTE,BP PETROBENE
"AVDA. GENERALITAT VALENCIANA, 4",L: 06:00-22:00,38.738444,JALON,-0.009028,Jalón/Xaló,1.725,1.379,1.815,,1.804,,,ALICANTE,A.ESTELA
"AVENIDA DEL TRENC D'ALBA, 47",L-D: 24H,38.788917,JÁVEA/XÀBIA,0.170861,Jávea/Xàbia,1.589,,,,1.659,,,ALICANTE,Q8
"CARRETERA CV-739 KM. 2,9",L-D: 06:00-22:00,38.770556,JÁVEA/XÀBIA,0.186361,Jávea/Xàbia,1.719,,1.799,,1.839,,1.999,ALICANTE,REPSOL
"AVENIDA DEL PLA, 77",L-D: 07:00-23:00,38.784944,JÁVEA/XÀBIA,0.178667,Jávea/Xàbia,1.689,,1.809,,1.749,1.869,,ALICANTE,CEPSA
"CARRETERA CV-734 KM. 4,6",L-D: 06:00-22:00,38.776083,JÁVEA/XÀBIA,0.119861,Jávea/Xàbia,1.729,,1.809,,1.829,,1.989,ALICANTE,PETRONOR
"CALLE BRUSELAS, 4",L-D: 24H,38.785667,JÁVEA/XÀBIA,0.174972,Jávea/Xàbia,1.609,,,,1.709,,,ALICANTE,ECO COMBUSTIBLE 24H LOW COST
"CARRETERA CV-739 KM. 1,5",L-D: 06:00-22:00,38.781861,JÁVEA/XÀBIA,0.179444,Jávea/Xàbia,1.719,,1.799,,1.839,1.879,1.999,ALICANTE,REPSOL
"AVENIDA VALENCIA, SN",L-D: 06:00-22:00,38.785444,JÁVEA/XÀBIA,0.159972,Jávea/Xàbia,1.729,,1.809,,1.839,,1.999,ALICANTE,REPSOL
"AVENIDA DEL PUERTO, 36",L-D: 07:00-22:00,38.79425,JÁVEA/XÀBIA,0.177222,Jávea/Xàbia,1.729,,1.809,,1.839,,1.999,ALICANTE,REPSOL
"AVENIDA PALMELA, 47",L-D: 24H,38.787472,JÁVEA/XÀBIA,0.167583,Jávea/Xàbia,1.579,,,,1.649,,,ALICANTE,PLENOIL
"CARRETERA JAVEA BENITACHELL KM. 7,093",L-D: 07:00-21:30,38.74075,JÁVEA/XÀBIA,0.150944,Jávea/Xàbia,1.739,,1.819,,1.839,,1.979,ALICANTE,BP
"CALLE FRANCESC NIOLAU MIRA MIRALLES, S/N",L-D: 06:00-22:00,38.534028,XIXONA,-0.505083,Jijona/Xixona,1.799,,1.869,,1.839,1.899,,ALICANTE,CEPSA
AUTOVIA A-31 KM. 216,L-D: 24H,38.387917,MONFORTE DEL CID,-0.736806,Monforte del Cid,1.759,,1.849,,1.799,,1.941,ALICANTE,BP
AUTOVIA A-31 KM. 220,L-D: 24H,38.369306,MONFORTE DEL CID,-0.704611,Monforte del Cid,1.779,,1.845,,1.839,1.899,,ALICANTE,CEPSA
AUTOVIA A-31 KM. 220,L-D: 24H,38.369833,MONFORTE DEL CID,-0.704556,Monforte del Cid,1.779,,1.845,,1.839,,,ALICANTE,CEPSA
"CAMINO CAMINO AZAGADOR, 2",L-D: 06:00-00:00,38.380861,MONFORTE DEL CID,-0.723111,Monforte del Cid,1.69,1.35,,,,,,ALICANTE,COOPERATIVA V. AGRICOLA MONFORTE DEL CID
"GLORIETA JORGE JUAN, 86",L-S: 06:00-21:00; D: 07:00-14:00,38.376306,MONFORTE DEL CID,-0.773694,Monforte del Cid,1.759,1.459,1.859,,1.789,,,ALICANTE,BP
CARRETERA CR 3213 KM. 12,L-D: 06:00-22:00,38.424667,MONOVAR,-0.940028,Monóvar/Monòver,1.749,1.411,1.799,,1.779,,1.909,ALICANTE,REPSOL
"CARRETERA NOVELDA-MONOVAR KM. 9,6",L-D: 07:00-22:00,38.428444,MONOVAR,-0.838083,Monóvar/Monòver,1.669,,1.689,,1.759,,,ALICANTE,E.S. TEXAS
"AVENIDA COMUNIDAD VALENCIANA, SN",L-S: 06:30-22:30; D: 08:00-21:00,38.434222,MONOVAR,-0.839861,Monóvar/Monòver,1.739,,1.789,,1.789,,1.919,ALICANTE,PETRONOR
"CR CV-945  LO BLANC, 1,3 (A-340 km 1,36)",L-D: 24H,38.029472,MONTESINOS (LOS),-0.730944,Montesinos (Los),1.749,1.459,1.829,,1.819,,1.969,ALICANTE,REPSOL
"CARRETERA N-340 KM. 808,6",L-S: 07:00-22:00; D: 08:00-22:00,38.781417,MURO DEL ALCOY,-0.447889,Muro de Alcoy,1.739,1.469,1.859,,1.804,1.885,1.936,ALICANTE,CEPSA
CARRETERA CV 700 KM. 6,L-D: 06:00-22:00,38.782028,MURO DEL ALCOY,-0.424694,Muro de Alcoy,1.789,,1.859,,1.829,1.899,,ALICANTE,CEPSA
AUTOVIA A7 KM. 432,L-D: 06:00-22:00,38.794528,MURO DEL ALCOY,-0.444833,Muro de Alcoy,1.709,,1.799,,1.779,,1.909,ALICANTE,GALP
"CALLE DEL TRANSPORT, 25",L-D: 24H,38.7795,MURO DEL ALCOY,-0.447417,Muro de Alcoy,1.589,,,,1.659,,,ALICANTE,"GASOLPOP,S.L."
"CARRETERA N-340 KM. 808,6",L-V: 06:00-22:00; S: 06:00-16:00,38.781889,MURO DEL ALCOY,-0.448444,Muro de Alcoy,1.739,1.469,1.859,,1.804,1.885,1.936,ALICANTE,CEPSA
"CALLE OSSA MAJOR, 1",L-D: 07:00-23:00,38.407,MUTXAMEL,-0.463917,Mutxamel,1.739,,1.829,,1.809,,1.951,ALICANTE,BP MUCHAMIEL
"PARTIDA SAN PERET, 26",L-D: 24H,38.4245,MUTXAMEL,-0.431389,Mutxamel,1.739,,1.829,,1.809,,1.951,ALICANTE,BP SANT PERET
"AVENIDA ALCOY, S/N",L-D: 06:00-22:00,38.426222,MUTXAMEL,-0.449833,Mutxamel,1.739,1.469,1.819,,1.804,,1.936,ALICANTE,CEPSA
"CARRETERA CV 800 KM. 0,750",L-D: 06:00-22:00,38.427167,MUTXAMEL,-0.434583,Mutxamel,1.749,,1.819,,1.815,1.865,1.945,ALICANTE,REPSOL
"AVENIDA ALCOY, S/N",L-D: 08:00-13:00 y 16:00-19:00,38.426528,MUTXAMEL,-0.450361,Mutxamel,1.739,1.469,1.819,,1.804,,1.936,ALICANTE,CEPSA
"AVENIDA PEREZ GALDOS, 2",L-S: 06:00-21:00; D: 07:00-15:00,38.386417,NOVELDA,-0.758389,Novelda,1.759,,1.839,,1.779,,1.939,ALICANTE,REPSOL
"AVENIDA RIO VINALOPO, 1",L-D: 06:00-23:00,38.38825,NOVELDA,-0.755694,Novelda,1.759,,1.859,,1.789,,1.941,ALICANTE,BP
"POLIGONO SANTA FE C/1 ESQUINA C/2, 1,2",L-V: 06:00-21:00; S: 07:00-21:00; D: 07:00-14:00,38.385639,NOVELDA,-0.776833,Novelda,1.759,,1.859,,1.789,,,ALICANTE,BP
"AVENIDA JESUS NAVARRO JOVER, 13",L-D: 24H,38.390028,NOVELDA,-0.752167,Novelda,1.559,,,,1.659,,,ALICANTE,QFS
"AVENIDA JESUS NAVARRO, S/N",L-D: 24H,38.389111,NOVELDA,-0.753,Novelda,1.549,,,,1.649,,,ALICANTE,PETROPRIX
"AVENIDA REYES CATOLICOS, 152",L-V: 06:00-21:00; S-D: 07:00-21:00,38.376333,NOVELDA,-0.771333,Novelda,1.759,,1.859,,1.789,,1.949,ALICANTE,BP INNUBEL - NOVELDA
P.I. La Nucia - Parcela 16,L-D: 06:00-22:00,38.603028,NUCIA (LA),-0.129556,Nucia (la),1.664,,1.734,,1.779,,1.909,ALICANTE,GALP
"CARRETERA CV-70 PARTIDA FOIA COMP KM. 5,3",L-D: 07:00-23:00,38.589639,NUCIA (LA),-0.1245,Nucia (la),1.739,,1.829,,1.839,,1.981,ALICANTE,BP LA NUCIA
"CL AVENIDA MARINA BAIXA, 80",L-D: 06:00-22:00,38.616167,NUCIA (LA),-0.123944,Nucia (la),1.739,,1.839,,1.829,,1.989,ALICANTE,REPSOL
"AVENIDA MARINA BAIXA, 112",L-D: 24H,38.6055,NUCIA (LA),-0.129361,Nucia (la),1.629,,,,1.729,,,ALICANTE,PLENOIL
"CALLE SAGRA, 3",L-D: 24H,38.817917,ONDARA,0.0185,Ondara,1.648,,,,1.748,,,ALICANTE,LOW COST 24H
"CALLE ELS POBLETS, 10",L-D: 24H,38.817917,ONDARA,0.020833,Ondara,1.759,,1.799,,1.839,,,ALICANTE,CARREFOUR
"AVENIDA ALACANT, 82",L: 06:00-22:00,38.822167,ONDARA,0.021694,Ondara,1.799,,1.889,,1.859,,2.009,ALICANTE,BP
CARRETERA N-332 KM. 198,L-D: 06:00-22:00,38.82825,ONDARA,0.01475,Ondara,1.759,,1.819,,1.839,,1.999,ALICANTE,REPSOL
"CALLE JAIME I, 10",L-D: 06:00-22:00,38.626278,ONIL,-0.6815,Onil,1.608,,,,1.708,,,ALICANTE,INDEPENDIENTE
"CALLE P.I. LA MARJAL - C/ GREGAL, S/N",L-D: 24H,38.613444,ONIL,-0.669667,Onil,1.739,,1.818,,1.809,,1.951,ALICANTE,BP
"CALLE POL LA MARJAL C/LLEBEIG, 21",L-D: 24H,38.612972,ONIL,-0.670417,Onil,1.689,,,,1.769,,1.889,ALICANTE,T. ALBERO
"CARRETERA CV-715 KM. 21,5",L-D: 07:00-22:00,38.771694,ORBA,-0.06225,Orba,1.719,1.359,,,1.809,,1.989,ALICANTE,GASORBA
"CARRETERA CV-914 KM. 8,200",L-D: 06:00-22:00,38.089806,ORIHUELA,-0.848778,Orihuela,1.719,1.379,1.789,,1.799,,1.859,ALICANTE,REVISOIL
"CARRETERA ALMORADI KM. 0,2",L-D: 06:30-22:30,38.087278,ORIHUELA,-0.936083,Orihuela,1.769,1.449,1.835,,1.814,,1.946,ALICANTE,CEPSA
"CARRETERA AV-4141 KM. 0,9",L-D: 24H,38.119528,ORIHUELA,-0.954556,Orihuela,1.759,,1.839,,1.799,,1.899,ALICANTE,ORIGAS (MONTEPINAR)
"CALLE PROLONGACION OBISPO ROCAMORA, S/N",L-V: 07:00-19:00; S: 08:00-13:00,38.081639,ORIHUELA,-0.937167,Orihuela,1.759,,1.839,,1.799,,1.899,ALICANTE,BP  EL LIMONAR
"CARRETERA NACION-340-R AB KM. 19,6",L-V: 07:00-19:00; S: 08:00-13:00,38.081361,ORIHUELA,-0.994056,Orihuela,1.759,,1.839,,1.799,,1.899,ALICANTE,BP LA APARECIDA DE ORIHUELA
"CARRETERA N-340 KM. 688,6",L-D: 06:00-22:00,38.106222,ORIHUELA,-0.93175,Orihuela,1.769,,1.869,,1.805,,1.965,ALICANTE,REPSOL
"PLAZA CAPUCHINOS, S.N.",L-D: 06:00-23:00,38.091278,ORIHUELA,-0.953194,Orihuela,1.759,,,,1.799,,1.899,ALICANTE,NO ROTULO
"CALLE CAPUCHINOS, S/N",L-V: 07:00-19:00; S: 08:00-13:00,38.090444,ORIHUELA,-0.952417,Orihuela,1.759,,1.839,,1.799,,1.899,ALICANTE,BP  CAPUCHINOS
"CARRETERA A-304 KM. 5,45",L-D: 06:00-23:00,38.0915,ORIHUELA,-0.878611,Orihuela,1.759,,1.839,,1.799,,1.899,ALICANTE,BP SAN BARTOLOME  LA CAMPANETA
"CARRETERA A-304 KM. 5,45",L-V: 08:00-19:00,38.090833,ORIHUELA,-0.878889,Orihuela,1.759,,1.839,,1.799,,1.899,ALICANTE,BP SAN BARTOLOME LA CAMPANETA
"CARRETERA ALMORADI KM. 0,2",L-D: 06:30-21:30,38.086917,ORIHUELA,-0.936139,Orihuela,1.769,,1.835,,1.814,1.874,,ALICANTE,CEPSA
"CALLE VIEJO DE CALLOSA, 36",L-D: 24H,38.091361,ORIHUELA,-0.9295,Orihuela,1.639,,,,1.719,,,ALICANTE,PLENOIL
"URBANIZACIÓN VILLAMARTIN NORTE, S",L-D: 07:00-23:00,37.926694,ORIHUELA,-0.735556,Orihuela,1.769,,1.859,,1.829,,1.971,ALICANTE,BP LA ZENIA
CV-915 km 1,L-D: 06:00-22:00,38.082583,ORIHUELA,-0.954111,Orihuela,1.779,,1.859,,1.789,,,ALICANTE,PETRONOR
"CARRETERA BENIEL DESAM KM. 3,7",L-V: 06:30-22:00; S-D: 07:00-22:00,38.063444,ORIHUELA,-0.983722,Orihuela,1.749,,1.809,,1.789,,1.859,ALICANTE,SHELL
"CARRETERA ARNEVA - EL MOJON KM. 5,800",L-V: 06:00-22:00; S: 06:00-15:00; D: 07:00-15:00,38.047111,ORIHUELA,-0.962861,Orihuela,1.789,1.419,1.855,,1.859,,,ALICANTE,CEPSA
"CALLE EL PINAR, 9",L: 06:00-22:00,38.055694,ARNEVA,-0.937139,Orihuela,1.699,1.399,,,1.769,,1.919,ALICANTE,EL TANQUE
"CARRETERA CV911 KM. 1,5",L-V: 07:00-21:00; S-D: 08:00-18:00,38.107,SAN BARTOLOME,-0.864722,Orihuela,1.739,,1.839,,1.779,,,ALICANTE,REPSOL
"CALLE MAYOR-SAN BARTOLOME, 53",L-V: 08:00-19:00,38.094944,SAN BARTOLOME,-0.8615,Orihuela,1.64,,,,,,,ALICANTE,GRUPO PEREA
"CARRETERA NACIONAL 332 KM. 53,5",L-D: 24H,37.946167,ORIHUELA,-0.716139,Orihuela,1.579,,1.579,,1.679,1.679,,ALICANTE,EASYGAS
CARRETERA VILLAMARIA KM. 1,L-D: 06:00-23:00,38.167167,ORIHUELA,-0.963028,Orihuela,1.709,1.379,1.769,,1.779,,,ALICANTE,"COMBUSTIBLES LA MURADA,S.L."
CARRETERA VILLAMARIA KM. 1,L-D: 00:06-23:00,38.167194,ORIHUELA,-0.963611,Orihuela,1.639,,1.699,,1.719,1.779,,ALICANTE,COMBUSTIBLES LA MURADA
CARRETERA N-332 KM. 47,L-D: 06:00-00:00,37.903583,ORIHUELA - COSTA (NUCLEO),-0.761083,Orihuela,1.769,,1.835,,1.809,,1.941,ALICANTE,CEPSA
"CALLE CERVANTES-ZENIA II, 1",L: 24H,37.923889,ORIHUELA - COSTA (NUCLEO),-0.733417,Orihuela,1.569,,,,1.679,,,ALICANTE,GASEXPRESS
"CALLE CLAVO, 1",L-D: 24H,37.934333,ORIHUELA - COSTA (NUCLEO),-0.749917,Orihuela,1.769,,1.849,,1.829,,1.969,ALICANTE,REPSOL
"CALLE JADE, 1",L-D: 24H,37.930444,ORIHUELA - COSTA (NUCLEO),-0.736278,Orihuela,1.619,,1.659,,1.659,,,ALICANTE,ALCAMPO
"CALLE CABO CREUS, 2",L-D: 07:00-00:00,37.918,ORIHUELA - COSTA (NUCLEO),-0.754444,Orihuela,1.769,,1.859,,1.829,,1.971,ALICANTE,BP LOMAS DE CABO ROIG
"CALLE SANTA ALODIA, 4",L-D: 24H,37.937139,ORIHUELA - COSTA (NUCLEO),-0.721889,Orihuela,1.569,,,,1.639,,,ALICANTE,PLENOIL
"CARRETERA N-332 KM. 52,1",L-D: 06:00-22:00,37.94325,ORIHUELA - COSTA (NUCLEO),-0.718028,Orihuela,1.789,,1.855,,1.829,1.889,1.959,ALICANTE,CEPSA
CARRETERA N-332 KM. 46,L-D: 06:00-22:00,37.902667,ORIHUELA - COSTA (NUCLEO),-0.760833,Orihuela,1.785,,1.879,,1.829,1.909,1.989,ALICANTE,CEPSA
"AVENIDA TIRO DE PICHON, 2",L-D: 24H,37.929333,ORIHUELA - COSTA (NUCLEO),-0.766806,Orihuela,1.569,,,,1.639,,,ALICANTE,PLENOIL
CARRETERA C-332 KM. 193,L-D: 06:00-22:00,38.797667,PEDREGUER,0.054222,Pedreguer,1.739,,1.819,,1.839,,1.979,ALICANTE,SHELL
CARRETERA N-332 KM. 193,L-D: 06:00-22:00,38.797417,PEDREGUER,0.052972,Pedreguer,1.739,,1.819,,1.839,,1.979,ALICANTE,SHELL
"CALLE BARRANC DEL MARX, 4",L-D: 24H,38.798667,PEDREGUER,0.040333,Pedreguer,1.699,,,,1.789,,,ALICANTE,COMBUSELLA
"CL AVENIDA JAON CARLES I, 27",L-D: 06:00-22:00,38.800111,PEDREGUER,0.038889,Pedreguer,1.739,,1.809,,1.829,,1.989,ALICANTE,REPSOL
"AUTOPISTA AP-7 (MRG.IZDO.) KM. 613,2",L-D: 24H,38.792028,PEDREGUER,0.06275,Pedreguer,1.764,,1.854,,1.854,,1.994,ALICANTE,GALP
"AUTOPISTA AP-7 KM. 613,2",L-D: 24H,38.792056,PEDREGUER,0.063139,Pedreguer,,,,,,,,ALICANTE,HAM
"AUTOPISTA AP-7 (MRG.DCHO.) KM. 613,2",L-D: 24H,38.789861,PEDREGUER,0.063417,Pedreguer,1.764,,1.854,,1.854,,1.994,ALICANTE,GALP
"AVENIDA JOAN CARLES I REI, 2",L-D: 24H,38.848278,PEGO,-0.115028,Pego,1.648,,,,1.698,,,ALICANTE,LOW COST 24H
CARRETERA DENIA KM. 1,L-D: 06:00-22:00,38.843694,PEGO,-0.106778,Pego,1.659,1.359,,,1.709,,1.759,ALICANTE,COOPEGO
"AVENIDA OLIVA, SN",L-S: 06:00-22:00; D: 07:00-22:00,38.849528,PEGO,-0.11275,Pego,1.729,,1.819,,1.809,,1.951,ALICANTE,BP PEGO
"CARRETERA COMARCAL 3311 KM. 52,300",L-S: 07:00-19:00,38.851917,PEGO,-0.041861,Pego,1.729,,,,1.799,,,ALICANTE,RACONS
"AVDA. DEL GUIRNEY, Nº 4",L-D: 24H,38.488889,PETRER,-0.776944,Petrer,1.694,,1.774,,1.779,,1.919,ALICANTE,SHELL
"AVENIDA DEL GUIRNEY, 2 BIS",L-S: 09:30-22:30,38.48825,PETRER,-0.773306,Petrer,1.749,,1.789,,1.809,,,ALICANTE,CARREFOUR
"AUTOVIA A-31 KM. 204,600",L-D: 06:00-22:00,38.474472,PETRER,-0.771,Petrer,1.749,,1.829,,1.804,,1.935,ALICANTE,CEPSA
"AVENIDA MEDITERRANEO, 143",L-D: 24H,38.460861,PETRER,-0.782111,Petrer,1.495,,,,1.539,,,ALICANTE,CAMPSA EXPRESS
"AVENIDA DEL MEDITERRANEO, 129",L-D: 24H,38.462861,PETRER,-0.782611,Petrer,1.496,,2.999,,1.56,,2.999,ALICANTE,E.S. PETRER-ELDA
"AUTOVIA A-31 KM. 201,700",L-D: 06:00-22:00,38.493361,PETRER,-0.780417,Petrer,1.739,,1.839,,1.804,1.885,,ALICANTE,CEPSA
"CALLE PRESBITERO CONRADO POVEDA, 1",L-D: 24H,38.489028,PETRER,-0.783861,Petrer,1.579,,1.599,,1.699,,,ALICANTE,BALLENOIL
"AVENIDA DE LA COOPERATIVA, S/N",L-D: 24H,37.868639,PILAR DE LA HORADADA,-0.821694,Pilar de la Horadada,1.599,1.303,,,1.629,,,ALICANTE,SURINVER
"CARRETERA A-353 KM. 35,5",L-D: 06:00-02:00,37.859833,PILAR DE LA HORADADA,-0.782472,Pilar de la Horadada,1.785,,1.865,,1.829,1.909,1.961,ALICANTE,CEPSA
"CALLE CLARA CAMPOAMOR, 2",L-D: 06:00-22:00,37.871667,PILAR DE LA HORADADA,-0.801194,Pilar de la Horadada,1.577,,1.597,,1.655,,,ALICANTE,RHR
"CALLE APIO, 2",L-D: 24H,37.899,PILAR DE LA HORADADA,-0.847722,Pilar de la Horadada,1.589,,,,1.689,,,ALICANTE,ÁRTICO OIL
"CALLE MAYOR, 113",L-D: 24H,37.862111,PILAR DE LA HORADADA,-0.786389,Pilar de la Horadada,1.689,,,,1.789,,,ALICANTE,E.S.HORADADA
"CARRETERA A-353 KM. 33,5",L-D: 06:00-22:00,37.871167,PILAR DE LA HORADADA,-0.800639,Pilar de la Horadada,1.769,1.502,1.835,,1.809,,,ALICANTE,CEPSA
"AVENIDA DEL VELERO - ESQ. COMUNIDAD VALENCIANA, 110",L-D: 24H,37.865694,TORRE DE LA HORADADA,-0.772417,Pilar de la Horadada,1.649,,,,1.729,,,ALICANTE,E.S. LA TORRE
CARRETERA DE YECLA KM. 2,L-D: 24H,38.404389,PINOSO,-1.037056,Pinoso,1.649,,1.699,,1.729,,,ALICANTE,GLOBALTANK PINOSO
"CARRETERA DE JUMILLA KM. 53,8",L-D: 06:00-22:00,38.402472,PINOSO,-1.046806,Pinoso,1.739,1.411,1.799,,1.779,,1.939,ALICANTE,REPSOL
"TRAVESÍA 1 ORIHUELA, 1",L-D: 06:00-22:00,38.111306,REDOVAN,-0.903333,Redován,1.759,,1.839,,1.799,,1.939,ALICANTE,SHELL
"CALLE CIUDAD DE LA LUZ, 1",L-D: 24H,38.084861,ROJALES,-0.730167,Rojales,1.579,,,,1.679,,,ALICANTE,TAMOIL
"CALLE JOSEFA ANIORTE, 3",L-D: 24H,38.088722,ROJALES,-0.712361,Rojales,1.579,,,,1.679,,,ALICANTE,TAMOIL
"CARRETERA CREVILLENTE-TORREVIEJA KM. 22,8",L-D: 06:00-22:00,38.083972,ROJALES,-0.732722,Rojales,1.769,,1.859,,1.829,,1.971,ALICANTE,BP ROJALES
"CALLE GUADALAJARA, S/N",L-V: 07:00-19:00; S: 08:00-13:00,38.050444,ROJALES,-0.722583,Rojales,1.769,,,,1.819,,1.849,ALICANTE,QUESADAGAS
"Avda. de las Naciones, S/N",L-D: 06:00-22:00,38.063056,ROJALES,-0.728778,Rojales,1.719,,1.789,,1.784,,1.924,ALICANTE,GALP
"AVENIDA JEREZ DE LA FRONTERA, 2",L-D: 24H,38.061583,ROJALES,-0.728667,Rojales,1.599,,1.619,,1.699,,,ALICANTE,BALLENOIL
CARRETERA ALGUEÑA KM. 3,L-V: 05:00-21:00; S-D: 07:00-21:00,38.363361,ROMANA (LA),-0.895056,Romana (la),1.659,1.269,1.709,,1.749,,1.869,ALICANTE,SIN ROTULO
"CALLE LA MOLINETA, S/N",L: 06:30-22:00,38.518611,SALINAS,-0.909722,Salinas,1.649,1.369,,,1.729,,,ALICANTE,MEROIL
"CARRETERA NACIONAL 332 KM. 74,6",L-D: 24H,38.118917,SAN FULGENCIO,-0.656111,San Fulgencio,1.634,,,,1.734,,,ALICANTE,GHOL
"CARRETERA CV-859, DOLORES-SAN FULGENCIO KM. 4,5",L-D: 06:30-22:30,38.113333,SAN FULGENCIO,-0.726389,San Fulgencio,1.749,1.429,1.819,,1.809,,1.939,ALICANTE,GALP
"POLIGONO INDUSTRIAL ""LA GRANADINA"", N",L-D: 24H,38.175917,SAN ISIDRO,-0.834417,San Isidro,1.779,1.514,,,,,,ALICANTE,IDS
"CALLE AUSTRIA, 7",L-D: 24H,38.173417,SAN ISIDRO,-0.85775,San Isidro,1.659,1.359,,,1.739,,,ALICANTE,BDMED
"CALLE ANTONIO MACHADO / FIDEL, POL. IND. LA GRANADINA, S/N",L-D: 24H,38.169806,SAN ISIDRO,-0.852389,San Isidro,,,,,,,,ALICANTE,NATURGY
"POLIGONO LO QUILEZ, S/N",L-D: 06:00-22:00,37.991056,SAN MIGUEL DE SALINAS,-0.780167,San Miguel de Salinas,1.629,,1.679,,1.729,,,ALICANTE,ESTACION DE SERVICIO PETROBLUE
"RONDA OESTE, S/N",L-S: 06:00-22:00; D: 08:00-21:00,37.981583,SAN MIGUEL DE SALINAS,-0.793111,San Miguel de Salinas,1.739,,1.839,,1.799,,1.959,ALICANTE,REPSOL
"CARRETERA SAN VICENTE -ALICANTE KM 3,7 KM. 3,7",L-D: 24H,38.380444,SAN VICENTE DEL RASPEIG/SANT VICENT DEL RASPEIG,-0.503,San Vicente del Raspeig/Sant Vicent del Raspeig,1.699,,1.739,,1.779,,1.939,ALICANTE,CARREFOUR
"POLIGONO CANASTELL-CALLE TORNO, 11",L-V: 06:30-22:00; S: 08:00-15:00,38.406778,SAN VICENTE DEL RASPEIG/SANT VICENT DEL RASPEIG,-0.540389,San Vicente del Raspeig/Sant Vicent del Raspeig,1.575,,1.625,,1.705,,,ALICANTE,GASOLEO EXPRES
"CARRETERA AC-2203 KM. 5,1",L-D: 06:00-22:00,38.390139,SAN VICENTE DEL RASPEIG/SANT VICENT DEL RASPEIG,-0.514972,San Vicente del Raspeig/Sant Vicent del Raspeig,1.749,,1.849,,1.809,,1.949,ALICANTE,REPSOL
CARRETERA DE CASTALLA km 13,L-V: 07:00-21:00; S: 07:00-15:00; D: 08:00-15:00,38.416833,SAN VICENTE DEL RASPEIG/SANT VICENT DEL RASPEIG,-0.536417,San Vicente del Raspeig/Sant Vicent del Raspeig,1.739,,1.819,,1.789,,1.949,ALICANTE,REPSOL
"CARRER PERU, 12",L-D: 24H,38.391917,SAN VICENTE DEL RASPEIG/SANT VICENT DEL RASPEIG,-0.512806,San Vicente del Raspeig/Sant Vicent del Raspeig,1.569,,,,1.697,,,ALICANTE,PLENOIL
"PARTIDA INMEDIACIONES, 28",L-D: 24H,38.390833,SAN VICENTE DEL RASPEIG/SANT VICENT DEL RASPEIG,-0.526694,San Vicente del Raspeig/Sant Vicent del Raspeig,1.569,,,,1.699,,,ALICANTE,GASEXPRESS
"CALLE LA HUERTA, 11",L-D: 06:00-00:00,38.398833,SAN VICENTE DEL RASPEIG/SANT VICENT DEL RASPEIG,-0.51825,San Vicente del Raspeig/Sant Vicent del Raspeig,1.739,,1.819,,1.809,,1.949,ALICANTE,SHELL
"CARRETERA CARRETERA DE AGOST KM. 1,000",L-D: 06:00-22:00,38.40125,SAN VICENTE DEL RASPEIG/SANT VICENT DEL RASPEIG,-0.535333,San Vicente del Raspeig/Sant Vicent del Raspeig,1.749,,1.839,,1.809,,1.959,ALICANTE,GALP
"CALLE ARTES GRAFICAS, 1",L-V: 06:00-22:00; S: 07:00-14:00,38.404139,SAN VICENTE DEL RASPEIG/SANT VICENT DEL RASPEIG,-0.544472,San Vicente del Raspeig/Sant Vicent del Raspeig,1.713,,1.803,,1.793,,1.939,ALICANTE,CONFORT AUTO
"CARRETERA VILLAFRANQUEZA-SAN VICENTE KM. 1,5",L-S: 06:00-22:00; D: 08:00-15:00,38.390528,SAN VICENTE DEL RASPEIG/SANT VICENT DEL RASPEIG,-0.505611,San Vicente del Raspeig/Sant Vicent del Raspeig,1.749,,1.849,,1.809,,1.949,ALICANTE,REPSOL
CARRETERA AGOST KM. 68,L-D: 06:00-22:00,38.401417,SAN VICENTE DEL RASPEIG/SANT VICENT DEL RASPEIG,-0.534111,San Vicente del Raspeig/Sant Vicent del Raspeig,1.749,,1.829,,1.799,,1.959,ALICANTE,REPSOL
"AVENIDA ALICANTE, 79",L-V: 06:00-22:00; S-D: 07:00-22:00,38.388472,BOQUERES,-0.511833,San Vicente del Raspeig/Sant Vicent del Raspeig,1.759,,1.849,,1.829,,1.971,ALICANTE,BP
"AVENIDA MIGUEL HERNANDEZ, S/N",L-D: 24H,38.411889,SANT JOAN D'ALACANT,-0.421472,Sant Joan d'Alacant,1.749,,1.819,,1.819,,1.969,ALICANTE,REPSOL
"AVENIDA BENIDORM, 23",L-D: 24H,38.397833,SANT JOAN D'ALACANT,-0.430028,Sant Joan d'Alacant,1.559,,,,1.659,,,ALICANTE,PLENOIL
"AVENIDA MIGUEL HERNANDEZ, S/N",L-D: 24H,38.412972,SANT JOAN D'ALACANT,-0.421306,Sant Joan d'Alacant,1.749,,1.819,,1.819,,,ALICANTE,REPSOL
"CALLE DIAGONAL, 15",L-D: 24H,38.39725,SANT JOAN D'ALACANT,-0.430528,Sant Joan d'Alacant,1.559,,,,1.659,,,ALICANTE,PETROPRIX
"AVENIDA MIGUEL HERNANDEZ, 20",L-D: 24H,38.393972,SANT JOAN D'ALACANT,-0.432556,Sant Joan d'Alacant,1.559,,,,1.659,,,ALICANTE,PLENOIL
"AVENIDA MUCHAMIEL, 8",L-D: 06:30-22:30,38.406944,SANT JOAN D'ALACANT,-0.439333,Sant Joan d'Alacant,1.719,,1.779,,1.789,,1.929,ALICANTE,REPSOL
CARRETERA DE VALENCIA KM. 89,L-D: 24H,38.408139,SANT JOAN D'ALACANT,-0.424306,Sant Joan d'Alacant,1.739,,1.779,,1.809,,1.959,ALICANTE,CARREFOUR
"CARRETERA N-332 KM. 116,7",L-D: 24H,38.413139,SANT JOAN D'ALACANT,-0.420528,Sant Joan d'Alacant,1.559,,,,1.659,,,ALICANTE,PETROPRIX
"CALLE LOS MARINEROS, 1",L-D: 24H,38.208806,SANTA POLA,-0.57875,Santa Pola,1.549,,,,1.679,,,ALICANTE,POLAGAS
"AVENIDA FINLANDIA, 17",L-D: 24H,38.23325,SANTA POLA,-0.550833,Santa Pola,1.649,,,,1.729,,,ALICANTE,LOW COST
"ZONA PORTUARIA, 35",L-D: 24H,38.187611,SANTA POLA,-0.558611,Santa Pola,1.545,,,,1.665,,,ALICANTE,COFRADÍA DE PESCADORES
CARRETERA SANTA POLA KM. 21,L-D: 24H,38.199139,SANTA POLA,-0.567583,Santa Pola,1.555,,,,1.684,,,ALICANTE,VCC SANTA POLA
"CARRETERA N-332 KM. 87,8",L-D: 00:00-23:59,38.199444,SANTA POLA,-0.568667,Santa Pola,1.739,,1.859,,1.804,1.889,,ALICANTE,CEPSA
CARRETERA ELCHE SANTA POLA CRUCE C/LEVANTE 2 KM. S/N,L-D: 07:00-23:00,38.19725,SANTA POLA,-0.56225,Santa Pola,1.749,,1.829,,1.809,,1.949,ALICANTE,SANTA POLA
"CALLE LÉRIDA, 10",L-D: 24H,38.200139,SANTA POLA,-0.561472,Santa Pola,1.689,,,,1.829,,,ALICANTE,CARREFOUR
"CR N-332, 93,5",L-D: 24H,38.235389,SANTA POLA,-0.549972,Santa Pola,1.779,,1.879,,1.839,,1.999,ALICANTE,REPSOL
CARRETERA ELCHE SANTA POLA KM. 34,L-D: 24H,38.199222,SANTA POLA,-0.567139,Santa Pola,1.555,,,,1.684,,,ALICANTE,PLENOIL
"AUTOVIA A-31 KM. 196,500",L-D: 06:00-22:00,38.532667,SAX,-0.808167,Sax,1.739,,1.819,,1.804,1.885,,ALICANTE,CEPSA
"PASAJE DE LAS SUERTES, S.N.",L-D: 06:00-22:00,38.535,SAX,-0.810722,Sax,1.759,,1.839,,1.809,,1.929,ALICANTE,REPSOL
AUTOVIA A-31 KM. 191,L-V: 06:00-22:00; S-D: 08:00-17:00,38.572861,SAX,-0.83975,Sax,1.739,,1.819,,1.819,1.899,,ALICANTE,CEPSA
"AUTOVIA A-31 KM. 191,100",L-D: 06:00-23:59,38.573556,SAX,-0.83875,Sax,1.739,,1.819,,1.819,1.899,,ALICANTE,CEPSA
"POLIGONO C/ ELS GREMIS, 25",L-S: 06:00-22:00; D: 08:00-22:00,38.729361,TEULADA,0.092111,Teulada,1.739,1.453,1.839,,1.839,,1.999,ALICANTE,REPSOL
CARRETERA MORAIRA-TEULADA KM. 122,L-D: 24H,38.7,TEULADA,0.13425,Teulada,1.565,,,,1.717,,,ALICANTE,PLENOIL
"CARRETERA TEULADA-CALPE KM. 6,5",L-D: 06:00-22:00,38.689806,MORAIRA,0.134806,Teulada,1.729,,1.829,,1.839,,1.999,ALICANTE,REPSOL
CARRETERA CV-743 KM. 4,L-D: 07:00-23:00,38.712056,MORAIRA,0.130194,Teulada,1.739,,1.859,,1.804,1.885,1.936,ALICANTE,CEPSA
A-7 km 17,L-D: 06:30-22:00,38.498222,TIBI,-0.603167,Tibi,1.739,,1.829,,1.809,,1.951,ALICANTE,BP XIRAU
CL APOLO 74,L-D: 06:30-23:00,37.983056,TORREVIEJA,-0.679278,Torrevieja,1.709,,1.809,,1.779,,1.939,ALICANTE,BP OIL ESPAÑA
"CALLE ORIHUELA, 90",L-D: 06:30-22:00,37.983333,TORREVIEJA,-0.685944,Torrevieja,1.709,,1.809,,1.779,,1.939,ALICANTE,BP OIL ESPAÑA
"CALLE APOLO, 107",L-V: 07:00-19:00; S: 08:00-13:00,37.984444,TORREVIEJA,-0.679611,Torrevieja,1.769,,,,1.819,,1.849,ALICANTE,TORREGAS
"AVENIDA ROSA MAZÓN VALERO, SN",L-D: 24H,37.991056,TORREVIEJA,-0.680222,Torrevieja,1.559,,1.599,,1.659,,,ALICANTE,E.LECLERC
"CALLE VIAL DE RONDA, S/N",L-D: 24H,37.984694,TORREVIEJA,-0.680111,Torrevieja,1.769,,1.819,,1.819,,1.849,ALICANTE,GRUPO MARMESA
CARRETERA CTRA CREVILLENTE S/N KM. KM 3,L-D: 24H,37.999,TORREVIEJA,-0.690111,Torrevieja,1.579,,1.649,,1.679,,1.899,ALICANTE,Q8
"CARRETERA CV-905 KM. 10,1",L-D: 05:00-00:00,37.988333,TORREVIEJA,-0.687333,Torrevieja,1.749,,1.829,,1.799,,1.959,ALICANTE,REPSOL
"AVENIDA CORTES VALENCIANAS, SN",L-D: 07:00-22:00,38.002056,TORREVIEJA,-0.669667,Torrevieja,1.729,,1.829,,1.789,,1.949,ALICANTE,REPSOL
"CARRETERA CV-905 KM. 10,1",L-D: 06:00-23:00,37.987361,TORREVIEJA,-0.687472,Torrevieja,1.759,,1.825,,1.814,,1.946,ALICANTE,E.S. LAS SALINAS
"CL AVDA. ALFREDO NOBEL, 195",L-V: 07:00-21:00; S-D: 09:00-21:00,37.996028,TORREVIEJA,-0.655833,Torrevieja,1.719,,1.819,,1.779,1.819,1.939,ALICANTE,REPSOL
"CARRETERA CREVILLENTE KM. 34,400",L-D: 24H,37.992194,TORREVIEJA,-0.688194,Torrevieja,1.749,,1.789,,1.789,,1.939,ALICANTE,CARREFOUR
"AVENIDA DELFINA VIUDES, S/N",L-D: 24H,37.991139,TORREVIEJA,-0.680694,Torrevieja,1.559,,,,1.659,,,ALICANTE,PLENOIL
"AVENIDA CORTES VALENCIANAS, 74",L-D: 07:00-23:00,37.992278,TORREVIEJA,-0.674417,Torrevieja,1.559,,,,1.709,,,ALICANTE,V2 GASOLINERAS
"CALLE JOVEN TRINIDAD,, 11",L: 24H,37.987944,TORREVIEJA,-0.676806,Torrevieja,1.559,,,,1.659,,,ALICANTE,PLENOIL
"AVENIDA CORTES VALENCIANAS, 60",L-D: 06:00-22:30,37.991361,TORREVIEJA,-0.674944,Torrevieja,1.729,,1.819,,1.789,,1.939,ALICANTE,REPSOL
"CALLE OBENQUE, 1",L-D: 24H,37.992167,TORREVIEJA,-0.679556,Torrevieja,1.549,,,,1.639,,,ALICANTE,GM OIL TORREVIEJA
"CALLE AVILES, 4",L-D: 24H,38.020167,TORREVIEJA,-0.704556,Torrevieja,1.559,,,,1.659,,,ALICANTE,GASEXPRESS
"CALLE JOSE LORCA GARCIA, 7",L-D: 24H,37.998694,TORREVIEJA,-0.692278,Torrevieja,1.559,,,,1.659,,,ALICANTE,PLENOIL
"URBANIZACIÓN LAS BARCAS, 2",L-D: 24H,37.951028,TORREVIEJA,-0.713694,Torrevieja,1.549,,,,1.619,,,ALICANTE,PLENOIL
"CALLE ESCORPIONES, 13",L-D: 24H,37.949,TORREVIEJA,-0.716306,Torrevieja,1.569,,,,1.639,,,ALICANTE,PLENOIL
"CALLE CLAUDIO TOLOMEO, 2",L-D: 24H,37.962167,TORREVIEJA,-0.705139,Torrevieja,1.589,,,,1.639,,,ALICANTE,QUALITY OIL
"AVENIDA DENIA, S/N",L-D: 24H,37.968889,TORREVIEJA,-0.743222,Torrevieja,1.749,,1.839,,1.799,,1.941,ALICANTE,BP CORONELITA
CARRETERA CV-95 KM. 2,L-D: 07:00-00:00,37.963194,TORREVIEJA,-0.715222,Torrevieja,1.749,,1.829,,1.809,,1.969,ALICANTE,REPSOL
"AVENIDA PARTIDA SALOBRE, 1",L-D: 24H,38.854222,VERGER (EL),0.001139,Verger (el),1.647,,1.697,,1.747,,,ALICANTE,+B ENERGIAS
"AVENIDA VALENCIA, 50",L-D: 24H,38.855278,VERGER (EL),0.000306,Verger (el),1.698,,1.779,,1.798,,1.989,ALICANTE,PETROESPAÑA
"CARRETERA N-332 KM. 139,2",L-D: 06:00-23:00,38.516722,VILLAJOYOSA / VILA JOIOSA (LA),-0.210694,Villajoyosa/Vila Joiosa (la),1.769,,1.835,,1.809,1.869,1.941,ALICANTE,CEPSA
"PARTIDA CHOVANES, POLIGONO 11, PARCELAS 91 Y 300, S/N",L-D: 24H,38.515444,VILLAJOYOSA / VILA JOIOSA (LA),-0.234861,Villajoyosa/Vila Joiosa (la),1.577,,,,1.707,,,ALICANTE,PLENOIL
"POLIGONO PP-33, PARCELA 15, S/N",L-D: 24H,38.524361,VILLAJOYOSA / VILA JOIOSA (LA),-0.198389,Villajoyosa/Vila Joiosa (la),1.538,,,,1.658,,,ALICANTE,SUMINISTROS HERMANOS HT
"AVENIDA AVENIDA PAIS VALENCIA, S.N.",L-D: 24H,38.506972,VILLAJOYOSA / VILA JOIOSA (LA),-0.229222,Villajoyosa/Vila Joiosa (la),1.719,,1.819,,1.839,,1.979,ALICANTE,REPSOL
"CARRETERA N-332 KM. 135,5",L-D: 06:00-22:00,38.499028,VILLAJOYOSA / VILA JOIOSA (LA),-0.252,Villajoyosa/Vila Joiosa (la),1.795,1.499,1.861,,1.854,1.9,1.986,ALICANTE,CEPSA
"AUTOPISTA AP-7 (MRG.IZDO.) KM. 655,4",L-D: 24H,38.534694,VILLAJOYOSA / VILA JOIOSA (LA),-0.207083,Villajoyosa/Vila Joiosa (la),1.769,,1.849,,1.869,1.945,,ALICANTE,CEPSA
"PARTIDA TORRES NORTE, 31",L-D: 24H,38.521556,VILLAJOYOSA / VILA JOIOSA (LA),-0.199139,Villajoyosa/Vila Joiosa (la),1.578,,1.698,,1.708,,,ALICANTE,PETROLAVILA
"AUTOPISTA AP-7 (MRG.DCHO.) KM. 655,4",L-D: 24H,38.535972,VILLAJOYOSA / VILA JOIOSA (LA),-0.20225,Villajoyosa/Vila Joiosa (la),1.769,,1.849,,1.869,1.945,,ALICANTE,CEPSA
"CALLE MARINERS DE LA VILAJOIOSA, 2",L-D: 24H,38.530917,ERMITA (LA),-0.171917,Villajoyosa/Vila Joiosa (la),1.569,,,,1.669,,,ALICANTE,GASEXPRESS
"AVENIDA ALICANTE, 18",L-D: 06:00-22:00,38.629667,VILLENA,-0.856694,Villena,1.759,,1.819,,1.809,1.849,1.929,ALICANTE,REPSOL
AUTOVIA ALICANTE KM. 53,L-V: 07:00-00:00; S: 07:00-22:00; D: 07:00-00:00,38.618444,VILLENA,-0.848417,Villena,1.759,,1.839,,1.809,,,ALICANTE,REPSOL
CARRETERA N-330 KM. 68,L-D: 06:00-02:00,38.729028,VILLENA,-0.93825,Villena,1.759,,1.859,,1.849,,1.969,ALICANTE,REPSOL
CARRETERA CARRETERA DE YECLA KM. 1,L-D: 06:00-22:00,38.635889,VILLENA,-0.870667,Villena,1.759,,1.819,,1.809,,1.929,ALICANTE,REPSOL
AUTOVIA ALICANTE-MADRID KM. 59,L-D: 06:00-22:00,38.670306,VILLENA,-0.888056,Villena,1.759,,1.829,,1.819,,1.919,ALICANTE,BP
"PARTIDA PRADO DE LA VILLA, 106",L-D: 06:00-22:00,38.635861,VILLENA,-0.873944,Villena,1.659,1.319,1.709,,1.699,,1.799,ALICANTE,JBM
"AVENIDA CONSTITUCION DE, 206",L-D: 05:00-00:00,38.643528,VILLENA,-0.869028,Villena,1.749,1.44,1.829,,1.804,1.849,1.935,ALICANTE,LA MORENICA
CARRETERA ALICANTE KM. 53,L-D: 06:00-22:00,38.618083,VILLENA,-0.848972,Villena,1.759,1.416,1.839,,1.809,,1.929,ALICANTE,REPSOL
"CARRETERA CARRETERA NACIONAL 324 KM. 268,1",L: 06:00-10:00,37.14475,ABLA,-2.772778,Abla,1.749,1.419,1.799,,1.799,,1.899,ALMERÍA,CEPSA
CARRETERA LA ALQUERIA Nº125 SALIDA AUTOVIA 389 KM. 389,L-D: 24H,36.756139,ADRA,-3.001889,Adra,1.809,1.409,1.859,,1.839,,,ALMERÍA,REPSOL
AUTOVIA A-7 KM. 391,L-D: 24H,36.765444,ADRA,-2.985778,Adra,1.789,1.389,1.839,,1.839,,,ALMERÍA,CEPSA
"CARRETERA N-340 KM. 389,6",L: 06:00-22:00,36.748056,ADRA,-3.003944,Adra,1.779,,1.839,,1.769,,1.909,ALMERÍA,REPSOL
"AVENIDA LEGION ESPAÑOLA, 2",L-D: 24H,36.758889,PUENTE DEL RIO,-2.983333,Adra,1.59,,,,1.642,,,ALMERÍA,CAMPOADRA
"CALLE BARCELONA, 2",L-D: 24H,36.761639,PUENTE DEL RIO,-2.983028,Adra,1.505,,,,1.587,,,ALMERÍA,E.S CAMPOEJIDO ADRA
"POLIGONO INDUSTRIAL. AREA DE TRANSPORTES, 0",L-D: 24H,37.388111,ALBOX,-2.14175,Albox,1.525,,,,,,,ALMERÍA,TRANSRUMAR
"CARRETERA LORCA- BAZA, PARAJE LOS CHORLITOS, PARC. 426, POL. 41 KM. 426",L-D: 06:00-23:00,37.378139,ALBOX,-2.133194,Albox,1.558,,1.558,,1.678,1.678,,ALMERÍA,RASPA-OIL (SERV. ATENDIDO)
"POLIGONO INDUSTRIAL ALBOX, APARTADO 148, S/N",L-D: 06:30-22:00,37.384472,ALBOX,-2.176278,Albox,1.569,,1.619,,1.649,,,ALMERÍA,E.S.TERDIGUERA
"CARRETERA A-334 KM. 72,300",L-D: 24H,37.369472,ALBOX,-2.121083,Albox,1.539,1.379,,,,,,ALMERÍA,CARBURANTES ALMANZORA SL
"CR HUERCAL-OVERA-VILLAC. KM  70,1",L-D: 24H,37.379556,ALBOX,-2.1355,Albox,1.759,1.379,1.849,,1.799,,1.941,ALMERÍA,BP SAN JOSE
"PARAJE LOS MOLINAS - SALIENTE ALTO, 21,700",L-D: 07:00-23:00,37.493667,ALBOX,-2.150333,Albox,1.669,,,,1.709,,,ALMERÍA,SUMINISTROS PETROLIFEROS NTRA. SRA. DEL SALIENTE S.L.
"CARRETERA A-348 KM. 138,830",L-D: 06:00-22:00,36.949944,ALHAMA DE ALMERIA,-2.555722,Alhama de Almería,1.779,1.379,1.869,,1.779,,1.939,ALMERÍA,REPSOL
"CARRETERA N-340A KM. 438,5",L-D: 07:00-23:00,36.829444,ALMERIA,-2.492667,Almería,1.769,,1.899,,1.774,1.879,1.906,ALMERÍA,CEPSA
CARRETERA NIJAR LOS MOLINOS KM. 396,L-D: 24H,36.843556,ALMERIA,-2.436333,Almería,1.577,,,,1.677,,,ALMERÍA,PLENOIL
"CALLE ROSITA, 25",L-D: 07:00-21:30,36.867972,ALMERIA,-2.441389,Almería,1.589,,,,1.689,,,ALMERÍA,SECTOROIL
"AVENIDA FEDERICO GARCIA LORCA, S/N",L-D: 24H,36.852083,ALMERIA,-2.467333,Almería,1.799,,1.899,,1.779,,1.939,ALMERÍA,REPSOL
"AVENIDA MEDITERRANEO, 184",L-D: 24H,36.837778,ALMERIA,-2.447139,Almería,1.577,,,,1.677,,,ALMERÍA,PLENOIL
"CALLE OLULA DEL RIO, 1",L-D: 24H,36.836222,ALMERIA,-2.448361,Almería,1.577,,,,1.677,,,ALMERÍA,PLENOIL
CARRETERA AL-12 KM. 3.6,L-D: 00:00-23:59,36.843083,ALMERIA,-2.422972,Almería,1.769,,1.879,,1.774,,1.906,ALMERÍA,CEPSA
CARRETERA AL-3117 - AL-3110 KM. 0+925,L-D: 24H,36.854333,ALMERIA,-2.420194,Almería,1.577,,,,1.677,,,ALMERÍA,PETROPRIX
CARRETERA CARRETERA ALMERIA KM. 201,L-D: 06:00-22:00,36.840833,ALMERIA,-2.419722,Almería,1.779,,1.879,,1.799,,1.949,ALMERÍA,BP LOS PARTIDORES
"CALLE COBRE, 26",L-D: 07:00-21:30,36.85325,ALMERIA,-2.431333,Almería,1.589,,,,1.689,,,ALMERÍA,SECTOROIL
"CAMINO LOS ALMENDROS, 18",L-D: 24H,36.865139,ALMERIA,-2.449472,Almería,1.587,,,,1.687,,,ALMERÍA,PLENOIL
"CALLE MICA, 62",L-D: 24H,36.854778,ALMERIA,-2.432556,Almería,1.585,,,,1.665,,,ALMERÍA,CIUDAD DEL TAXI
"CARRETERA ALP 201 KM. 1,60",L-D: 06:00-22:00,36.853639,ALMERIA,-2.420722,Almería,1.789,1.42,1.879,,1.799,,1.969,ALMERÍA,REPSOL
"CALLE CUESTA DE LOS CALLEJONES, 0",L-D: 24H,36.865528,ALMERIA,-2.448639,Almería,1.779,,1.869,,1.769,,1.911,ALMERÍA,BP RAMBLA INIESTA
"CALLE CARRETERA DE NIJAR, S/N",L: 06:00-00:00,36.845861,ALMERIA,-2.450111,Almería,1.779,,1.869,,1.789,1.859,1.931,ALMERÍA,CEPSA
"CARRETERA DE GRANADA, 2 TRAMOS 55.57 KM. S/N",L-D: 24H,36.863833,ALMERIA,-2.448917,Almería,1.577,,,,1.677,,,ALMERÍA,PLENOIL
CARRETERA N-340A KM. 444,L-D: 06:00-23:30,36.857778,ALMERIA,-2.447278,Almería,1.759,,1.829,,1.759,,1.899,ALMERÍA,CEPSA
"CALLE JORGE GUILLEN, S/N",L-D: 24H,36.842167,ALMERIA,-2.442972,Almería,1.779,,1.819,,1.779,,1.919,ALMERÍA,CARREFOUR
"CALLE MONSERRAT, 0",L-D: 24H,36.840028,ALMERIA,-2.445611,Almería,1.779,,1.869,,1.769,,1.911,ALMERÍA,BP MONTSERRAT  ALMERIA
"AVENIDA NUESTRA SEÑORA DE MONTSERRAT, 160",L-D: 24H,36.838694,ALMERIA,-2.444528,Almería,1.577,,,,1.677,,,ALMERÍA,PETROPRIX
"AVENIDA DEL MEDITERRANEO, S/N",L-D: 24H,36.852444,ALMERIA,-2.446806,Almería,1.597,,1.627,,1.697,,1.786,ALMERÍA,ALCAMPO
"CL PADRE MENDEZ, S.N.",L-D: 06:00-22:00,36.839444,ALMERIA,-2.446722,Almería,1.789,,1.889,,1.769,,1.929,ALMERÍA,REPSOL
"AVENIDA SIERRA ALHAMILLA, 310",L-D: 24H,36.841972,ALMERIA,-2.439056,Almería,1.597,,1.597,,1.677,1.677,,ALMERÍA,LA TORRE
"AVENIDA CABO DE GATA, 4",L-D: 06:00-23:00,36.8335,ALMERIA,-2.462528,Almería,1.769,,1.879,,1.774,1.835,,ALMERÍA,CEPSA
"AVENIDA MEDITERRANEO, S/N",L-D: 06:00-22:00,36.827333,ALMERIA,-2.445028,Almería,1.789,,1.889,,1.769,,1.929,ALMERÍA,REPSOL
"CALLE CARRETERA SIERRA ALHAMILLA, 304",L-V: 06:00-22:00; S: 06:00-21:00; D: 07:00-21:00,36.841167,ALMERIA,-2.439472,Almería,1.779,,1.869,,1.769,,1.911,ALMERÍA,BP SIERRA ALHAMILLA
"AVENIDA CABO DE GATA, 280",L-D: 06:30-22:30,36.816083,ALMERIA,-2.432944,Almería,1.789,,1.889,,1.789,1.829,1.939,ALMERÍA,REPSOL
"CARRETERA NIJAR (ALQUIAN) KM. 6,9",L-D: 06:00-23:00,36.845,CAÑADA DE SAN URBANO (LA),-2.390944,Almería,1.769,,1.879,,1.774,1.835,,ALMERÍA,CEPSA
"AUTOVIA A7 KM. 460,000",L-D: 24H,36.875028,ALQUIAN (EL),-2.336444,Almería,1.789,1.469,1.879,,1.809,,1.979,ALMERÍA,REPSOL
"CARRETERA NIJAR-LA CAÑADA KM. 7,500",L-S: 07:00-22:00,36.850889,ALQUIAN (EL),-2.371972,Almería,1.679,,,,1.698,,,ALMERÍA,E.S. ALVAMAR
"CARRETERA SAN JOSÉ KM. 0,000",L-D: 24H,36.813056,RUESCAS,-2.234194,Almería,1.779,,1.869,,1.795,,1.932,ALMERÍA,BP
CARRETERA E-15/N-340 KM. 471,L-D: 24H,36.868389,RETAMAR,-2.23,Almería,1.769,1.419,1.829,,1.799,,1.939,ALMERÍA,JCARRION
CARRETERA NIJAR A RETAMAR (DISEMINADO) (DE) KM. 14,L-D: 06:00-23:00,36.852639,RETAMAR,-2.36075,Almería,1.759,,1.829,,1.759,,1.889,ALMERÍA,GALP
AUTOVIA AUTOVIA DEL MEDITERRANEO KM. 529,L-D: 24H,37.21375,ANTAS,-1.898028,Antas,1.72,1.336,1.808,,1.757,,,ALMERÍA,SHELL
CARRETERA NACIONAL 340 KM. 537,L: 24H,37.270556,ANTAS,-1.922472,Antas,1.532,1.223,,,1.575,,,ALMERÍA,ISABEL ALONSO
"POLIGONO P.I. EL REAL, S/N",L-D: 06:00-22:00,37.260306,ANTAS,-1.900306,Antas,1.749,,1.829,,1.759,,1.899,ALMERÍA,CEPSA
AUTOVIA MURCIA-ALMERIA SALIDA 537 KM. 537,L-D: 06:00-22:00,37.285833,ANTAS,-1.934556,Antas,1.769,,1.879,,1.789,,1.949,ALMERÍA,BP
CARRETERA NACIONAL 340 KM. 436,L-S: 06:30-22:30; D: 07:00-22:30,37.266222,ANTAS,-1.913639,Antas,1.649,1.309,1.689,,1.699,,,ALMERÍA,HNOS.MARTINEZ
"POLIGONO LOS LLANOS, 17",L-D: 24H,37.353056,ARBOLEAS,-2.096806,Arboleas,1.509,,,,1.609,,,ALMERÍA,E.S.ARBOLEAS
"POLIGONO SERVICIO LOS LLANOS (LL), 34",L-D: 24H,37.354,ARBOLEAS,-2.094778,Arboleas,1.538,,,,1.649,,,ALMERÍA,MORA OIL
CARRETERA A. 92A KM. 391,L-D: 24H,36.925083,BENAHADUX,-2.461611,Benahadux,1.779,,1.869,,1.759,,1.909,ALMERÍA,REPSOL
"CARRERA A-92 KM.391, 40",L-D: 24H,36.924639,BENAHADUX,-2.461556,Benahadux,1.779,,1.869,,1.759,,1.909,ALMERÍA,REPSOL
"AVENIDA JOSE BARRIONUEVO PEÑA, S/N",L-S: 06:30-20:30; D: 06:30-14:30,36.841667,BERJA,-2.945833,Berja,1.759,,1.819,,1.739,,1.859,ALMERÍA,REPSOL
"CAMINO OLIVO GORDO, S/N",L: 06:00-22:00,36.831889,BERJA,-2.959944,Berja,1.78,,1.862,,1.769,,1.903,ALMERÍA,BP
CARRETERA A-358 KM. 3,L-D: 06:00-22:00,36.834389,BERJA,-2.930361,Berja,1.505,1.199,1.599,,1.587,,1.859,ALMERÍA,TRUCKSTOP
CARRETERA N-340A KM. 400,L-S: 08:00-22:00,36.751028,BALANEGRA,-2.904556,Berja,1.55,,,,1.62,,,ALMERÍA,"CABASC, S.C.A."
"CARRETERA A-348 KM. 105,500",L-D: 06:00-22:00,37.001583,CANJAYAR,-2.713944,Canjáyar,1.769,1.359,1.859,,1.799,,1.969,ALMERÍA,E.S. ESCUDERO
"DISEMINADO EL LLANO, 1",L-V: 09:00-22:00; S: 09:00-14:00,37.358833,CANTORIA,-2.20225,Cantoria,1.565,,,,,,,ALMERÍA,CARBURANTES DE CANTORIA
"POLIGONO INDUSTRIAL S/N, 1",L-D: 24H,37.374167,HOJILLA (LA),-2.20575,Cantoria,1.519,,,,1.619,,,ALMERÍA,INDAPAK LOGISTICS
"PLAZA POLIGONO INDUSTRIAL, 16",L-D: 06:00-22:00,36.987694,CARBONERAS,-1.909861,Carboneras,1.769,,1.859,,1.759,,1.899,ALMERÍA,BP OIL ESPAÑA
CARRETERA ALMERIA  18 KM. 18,L-D: 06:00-22:00,36.989583,CARBONERAS,-1.917722,Carboneras,1.549,,,,,,,ALMERÍA,CBT CARBOTRANS S.COOP.AND
AUTOVIA A-92 KM. 385,L-D: 06:30-22:30,37.595778,CHIRIVEL,-2.281028,Chirivel,1.739,1.28,1.839,,1.779,,1.879,ALMERÍA,REPSOL
"POLIGONO VALLE DEL ALMANZORA  PARCELA 46-47,",L: 06:30-22:00,37.290778,CUEVAS DEL ALMANZORA,-1.886694,Cuevas del Almanzora,1.579,,,,1.679,,,ALMERÍA,PET. ALARCÓN Y GARCÍA
"AVENIDA DE ATRALES, 34",L-D: 07:00-22:00,37.292556,CUEVAS DEL ALMANZORA,-1.878833,Cuevas del Almanzora,1.779,,1.845,,1.789,,,ALMERÍA,CEPSA
"AVENIDA A-332 CARLOS HERRERA, 10",L-D: 24H,37.289139,CUEVAS DEL ALMANZORA,-1.877417,Cuevas del Almanzora,1.579,,,,1.669,,,ALMERÍA,PLENOIL
CARRETERA A-332 KM. 11,L-D: 06:00-22:00,37.296361,CUEVAS DEL ALMANZORA,-1.823944,Cuevas del Almanzora,1.578,1.395,,,1.699,,,ALMERÍA,"ES BORJA - E.S.SOBRADO DE PICATO, S.L.U"
"CR ALP-118, 58,4",L-D: 06:00-22:00,37.234389,PALOMARES,-1.79825,Cuevas del Almanzora,1.759,1.391,1.859,,1.759,1.799,1.899,ALMERÍA,REPSOL
"BARRIADA LOS LOBOS, 1",L-S: 07:00-22:00; D: 08:00-22:00,37.307444,LOBOS (LOS),-1.770222,Cuevas del Almanzora,1.729,1.399,1.795,,1.769,,,ALMERÍA,REPSOL
"AVENIDA ANDALUCIA,",L-S: 06:30-23:00; D: 07:00-23:00,37.347278,GUAZAMARA,-1.778194,Cuevas del Almanzora,1.699,1.359,,,1.739,,1.975,ALMERÍA,A.S. EL ARTINERO
"CTRA. EL EJIDO-BERJA km 10,200",L-D: 24H,36.81125,DALIAS,-2.863444,Dalías,1.505,1.199,1.599,,1.587,,1.859,ALMERÍA,TRUCK STOP DALIAS
"AVENIDA DE LAS ALPUJARRAS, S/N",L-D: 06:00-00:00,36.814722,DALIAS,-2.868306,Dalías,1.505,,,,1.587,,,ALMERÍA,E.S. CAMPEJIDO DALIAS
"PARAJE LOS ALJIBILLOS, S/N",L-S: 08:00-20:00,36.788611,EJIDO (EL),-2.825111,Ejido (El),1.6,,,,1.7,,,ALMERÍA,INDASOL
"CALLE Avellano, 492",L-D: 06:00-22:00,36.774722,EJIDO (EL),-2.802306,Ejido (El),1.569,,,,1.579,,,ALMERÍA,GASOLINERA EL EJIDO
"AVENIDA OASIS, 260",L-D: 06:00-23:00,36.758556,EJIDO (EL),-2.805444,Ejido (El),1.789,,1.859,,1.759,,1.909,ALMERÍA,REPSOL
"DISEMINADO LOS MAJALES, 39",L-D: 06:00-22:00,36.737778,EJIDO (EL),-2.816667,Ejido (El),1.58,,1.63,,1.68,,,ALMERÍA,ESTACION DE SERVICIO VICASOL S.L.
CARRETERA A-389 KM. 1,L-S: 07:00-21:00,36.746528,EJIDO (EL),-2.804222,Ejido (El),1.55,,,,,,,ALMERÍA,EJIDOMAR
"AVENIDA ALMERIMAR, S/N",L: 06:00-00:00,36.721528,EJIDO (EL),-2.794556,Ejido (El),1.62,,,,1.53,,,ALMERÍA,"AGROIRIS, S.A.T."
"CALLE CUATRO VIENTOS 228, S/N",L-D: 24H,36.768917,EJIDO (EL),-2.831861,Ejido (El),1.505,1.199,1.567,,1.587,,,ALMERÍA,E.S CAMPOEJIDO LAS PEÑAS
CARRETERA DE ALMERIMAR KM. 3,L-D: 24H,36.727361,EJIDO (EL),-2.802194,Ejido (El),1.505,1.199,1.567,,1.587,,,ALMERÍA,E.S. CAMPOEJIDO CTRA ALMERIMAR
"AVENIDA DEL TREINTA, 121",L-D: 06:30-23:00,36.777611,EJIDO (EL),-2.792222,Ejido (El),1.779,1.348,1.879,,1.739,,,ALMERÍA,REPSOL
CARRETERA ALMERIMAR KM. S/N,L-D: 24H,36.754056,EJIDO (EL),-2.806056,Ejido (El),1.739,1.369,1.809,,1.789,,,ALMERÍA,CEPSA ALMERIMAR
CARRETERA CARRETERA DE BERJA KM. 16,L-D: 06:00-22:00,36.780778,EJIDO (EL),-2.831333,Ejido (El),1.649,1.339,1.689,,1.749,,1.849,ALMERÍA,AGLA
"CALLE MARSELLA, S/N",L-V: 07:00-22:00; S: 07:00-15:00,36.782944,EJIDO (EL),-2.756139,Ejido (El),1.599,1.2,,,1.689,,,ALMERÍA,AGROPONIENTE
"CARRERA ALMERIMAR, 5",L-D: 06:30-22:30,36.720917,EJIDO (EL),-2.799917,Ejido (El),1.659,1.319,1.829,,1.769,,1.839,ALMERÍA,BAHIA DE ALMERIMAR
PARAJE DERRAMADERO DE CABRILES,L-D: 24H,36.768306,EJIDO (EL),-2.828556,Ejido (El),1.659,1.319,1.829,,1.769,,1.839,ALMERÍA,EJIDO OESTE
"CALLE CAÑADA CORTES, S/N",L-D: 24H,36.758,EJIDO (EL),-2.800194,Ejido (El),1.659,1.349,,,1.759,,,ALMERÍA,BDMED
"CALLE ARQUIMEDES, S/N",L-S: 08:00-22:00,36.758028,EJIDO (EL),-2.801167,Ejido (El),1.609,1.349,,,,,,ALMERÍA,"CIUDAD EJIDO,S.L"
"CALLE BULEVAR, 74",L-D: 24H,36.771278,EJIDO (EL),-2.826111,Ejido (El),1.779,1.343,1.829,,1.779,,,ALMERÍA,REPSOL LA COSTA
"CALLE CAMINO DE ROQUETAS, 6",L-D: 24H,36.778167,EJIDO (EL),-2.772639,Ejido (El),1.479,1.131,1.526,,,1.539,,ALMERÍA,E.S. COOP SANTA MARIA-EL EJIDO
CRA DE LA MOJONERA NORIAS 155,L-D: 06:00-22:00,36.757417,EJIDO (EL),-2.748222,Ejido (El),1.659,1.319,1.829,,1.769,,1.859,ALMERÍA,ES NORIAS
"CALLE CAMINO DE ADRA S/N ESQUINA CALLE LA PARRA, 0",L-D: 24H,36.769278,EJIDO (EL),-2.827583,Ejido (El),1.576,1.139,1.602,,,1.556,,ALMERÍA,BP EL EJIDO-COOP SANTA MARIA
CARRETERA CARRETERA DE BERJA KM. 16,L-D: 06:00-22:00,36.78425,EJIDO (EL),-2.834417,Ejido (El),1.649,,1.689,,1.749,,1.849,ALMERÍA,AGLA
"RAMBLA BERNAL, 19",L-V: 09:00-13:00 y 16:00-19:00,36.797944,EJIDO (EL),-2.727306,Ejido (El),1.629,,,,,,,ALMERÍA,TRANSPORTES BEARCA S.L.
"CALLE SIERRA DE ATALAYA, 2",L-D: 24H,36.776889,EJIDO (EL),-2.794083,Ejido (El),1.505,,,,1.584,,,ALMERÍA,PLENOIL
"CARRETERA AL-9008 KM. 4,593",L-D: 06:00-00:00,36.723944,EJIDO (EL),-2.795139,Ejido (El),1.505,,,,1.587,,,ALMERÍA,E.S CAMPOEJIDO TIERRAS ALMERIA
"PASEO PEDRO PONCE, 105",L-D: 24H,36.773889,EJIDO (EL),-2.802,Ejido (El),1.499,,,,1.699,,,ALMERÍA,SPLASH
CARRETERA IRYDA POLIG. IND. LA REDONDA KM. S/N,L-D: 24H,36.780444,SANTA MARIA DEL AGUILA,-2.748806,Ejido (El),1.779,1.359,1.809,,1.759,,,ALMERÍA,PARKING LA REDONDA
"CAMINO CAMINO DE ROQUETAS, 77",L-D: 06:00-00:00,36.775,SANTA MARIA DEL AGUILA,-2.752222,Ejido (El),1.505,1.199,1.567,,1.587,,,ALMERÍA,E.S.CAMPOEJIDO-LA ALDEILLA
"CARRETERA DE LA MOJONERA KM. 0,300",L-D: 24H,36.775278,SANTA MARIA DEL AGUILA,-2.78225,Ejido (El),1.505,1.199,1.599,,1.587,,1.859,ALMERÍA,TRUCK STOP EL EJIDO S.L.
CARRETERA N 340 KM. 413,L-D: 06:00-00:00,36.782917,SANTA MARIA DEL AGUILA,-2.756222,Ejido (El),1.505,1.199,1.599,,1.587,,1.859,ALMERÍA,TRUCK STOP DEL PONIENTE
"CARRETERA A-1050 KM. 7,2",L-D: 24H,36.752833,NORIAS (LAS),-2.704167,Ejido (El),1.58,1.158,,,1.66,,,ALMERÍA,EESS FEPSA
"LOMA DEL VIENTO,  Nº 78",L: 07:00-22:00,36.74775,NORIAS (LAS),-2.735917,Ejido (El),1.589,,1.719,,1.679,,,ALMERÍA,ECONORIAS
"CALLE FRAILE, 18",L-S: 07:30-10:30,36.759806,NORIAS (LAS),-2.757,Ejido (El),1.535,,,,1.635,,,ALMERÍA,"NORIAS VILO,S.L"
"PARAJE CAMINO DE ROQUETAS, 66",L-V: 07:30-14:00 y 15:30-20:00; S: 07:30-14:00,36.772611,NORIAS (LAS),-2.753139,Ejido (El),1.612,,,,1.67,,,ALMERÍA,SUMINISTROS ACIEN Y BARRANCO
CARRETERA AL-3303 KM. 1,L-D: 06:30-23:30,36.782167,SANTA MARIA DEL AGUILA,-2.787444,Ejido (El),1.575,1.104,1.594,,,1.556,1.559,ALMERÍA,BP COOP SANTA MARIA-EL EJIDO
"CALLE AGUA, 60",L-S: 07:00-22:00,36.709667,SAN AGUSTIN,-2.691417,Ejido (El),1.587,,1.631,,1.659,,,ALMERÍA,COHORSAN SCA
